site_id,firm_network,site_name,office_type,street_address,city,state_province,country,country_iso2,latitude,longitude,active_status,source_url,source_locator,coordinate_precision,coverage_tier,as_of_date
ey-cy-limassol-limassol,EY,EY,official_office,"Ernst & Young House, 27-29 Spyrou Kyprianou Avenue, Mesa Geitonia, 4001 Limassol, Cyprus P.O Box 50123 3601",Limassol,,Cyprus,CY,34.6982569,33.0436637,active,https://www.ey.com/en_gl/locations/cyprus#limassol-limassol,EY global office-locations JSON directory,source_coordinate,directory_complete,2026-07-18
ey-cy-nicosia-nicosia,EY,EY,official_office,"Esperides Building, 10 Esperidon Street, 1087 Nicosia, Cyprus P.O Box 21656 1511 Nicosia, Cyprus",Nicosia,,Cyprus,CY,35.15731,33.36392,active,https://www.ey.com/en_gl/locations/cyprus#nicosia-nicosia,EY global office-locations JSON directory,source_coordinate,directory_complete,2026-07-18
ey-za-cape-town-cape-town,EY,EY,official_office,"Waterway House, 3 Dock Road, V&A Waterfront",Cape Town,,South Africa,ZA,-33.9129141,18.4227851,active,https://www.ey.com/en_gl/locations/south-africa#cape-town-cape-town,EY global office-locations JSON directory,source_coordinate,directory_complete,2026-07-18
ey-za-durban-north-durban-north,EY,EY,official_office,"1 Pencarrow Crescent, Pencarrow Park, La Lucia Ridge",Durban North,,South Africa,ZA,-29.73394,31.0664663,active,https://www.ey.com/en_gl/locations/south-africa#durban-north-durban-north,EY global office-locations JSON directory,source_coordinate,directory_complete,2026-07-18
ey-za-johannesburg-johannesburg-wavespace,EY,EY wavespace Johannesburg,official_office,"102 Rivonia Road, Sandton",Johannesburg,,South Africa,ZA,-26.204762,28.05035,active,https://www.ey.com/en_gl/locations/south-africa#johannesburg-johannesburg-wavespace,EY global office-locations JSON directory,source_coordinate,directory_complete,2026-07-18
ey-za-johannesburg-johannesburg,EY,EY,official_office,102 Rivonia Road Sandton,Johannesburg,,South Africa,ZA,-26.10905,28.05762,active,https://www.ey.com/en_gl/locations/south-africa#johannesburg-johannesburg,EY global office-locations JSON directory,source_coordinate,directory_complete,2026-07-18
ey-za-bloemfontein-bloemfontein,EY,EY,official_office,"2nd Floor Spitskop Building, 86 Kellner Street, Westdene",Bloemfontein,,South Africa,ZA,-29.108832,26.2082667,active,https://www.ey.com/en_gl/locations/south-africa#bloemfontein-bloemfontein,EY global office-locations JSON directory,source_coordinate,directory_complete,2026-07-18
ey-za-port-elizabeth-port-elizabeth,EY,EY,official_office,"145 Cape Road, Millpark",Port Elizabeth,,South Africa,ZA,-33.95707,25.59273,active,https://www.ey.com/en_gl/locations/south-africa#port-elizabeth-port-elizabeth,EY global office-locations JSON directory,source_coordinate,directory_complete,2026-07-18
ey-ee-tallinn-tallinn,EY,EY,official_office,Ravala 4,Tallinn,,Estonia,EE,59.4343575,24.7583427,active,https://www.ey.com/en_gl/locations/estonia#tallinn-tallinn,EY global office-locations JSON directory,source_coordinate,directory_complete,2026-07-18
ey-fi-tampere-tampere,EY,EY,official_office,"Tulli Business Park, Åkerlundinkatu 11 A",Tampere,,Finland,FI,61.4951655,23.775393,active,https://www.ey.com/en_gl/locations/finland#tampere-tampere,EY global office-locations JSON directory,source_coordinate,directory_complete,2026-07-18
ey-fi-rovaniemi-rovaniemi,EY,EY,official_office,Koskikatu 27 B 502,Rovaniemi,,Finland,FI,66.503804,25.724192,active,https://www.ey.com/en_gl/locations/finland#rovaniemi-rovaniemi,EY global office-locations JSON directory,source_coordinate,directory_complete,2026-07-18
ey-fi-vaasa-vaasa,EY,EY,official_office,"Ernst & Young Oy, Pitkäkatu 55",Vaasa,,Finland,FI,63.0940449,21.6210323,active,https://www.ey.com/en_gl/locations/finland#vaasa-vaasa,EY global office-locations JSON directory,source_coordinate,directory_complete,2026-07-18
ey-fi-rauma-rauma,EY,EY,official_office,Valtakatu 9-11,Rauma,,Finland,FI,61.1312871,21.500045,active,https://www.ey.com/en_gl/locations/finland#rauma-rauma,EY global office-locations JSON directory,source_coordinate,directory_complete,2026-07-18
ey-fi-helsinki-ey-parthenon-helsinki,EY,EY-Parthenon Helsinki,official_office,Korkeavuorenkatu 32-34,Helsinki,,Finland,FI,60.16633966105562,24.945508984612275,active,https://www.ey.com/en_gl/locations/finland#helsinki-ey-parthenon-helsinki,EY global office-locations JSON directory,source_coordinate,directory_complete,2026-07-18
ey-fi-helsinki-helsinki,EY,EY,official_office,Korkeavuorenkatu 32-34,Helsinki,,Finland,FI,60.16633966105562,24.945508984612275,active,https://www.ey.com/en_gl/locations/finland#helsinki-helsinki,EY global office-locations JSON directory,source_coordinate,directory_complete,2026-07-18
ey-fi-joensuu-joensuu,EY,EY,official_office,Torikatu 19,Joensuu,,Finland,FI,62.599229,29.76143,active,https://www.ey.com/en_gl/locations/finland#joensuu-joensuu,EY global office-locations JSON directory,source_coordinate,directory_complete,2026-07-18
ey-fi-turku-turku,EY,EY,official_office,Linnankatu 3 a B,Turku,,Finland,FI,60.4517284,22.2729683,active,https://www.ey.com/en_gl/locations/finland#turku-turku,EY global office-locations JSON directory,source_coordinate,directory_complete,2026-07-18
ey-fi-pietarsaari-pietarsaari,EY,EY,official_office,Runebergsgatan 11,Pietarsaari,,Finland,FI,63.6749188,22.7059469,active,https://www.ey.com/en_gl/locations/finland#pietarsaari-pietarsaari,EY global office-locations JSON directory,source_coordinate,directory_complete,2026-07-18
ey-fi-lahti-lahti,EY,EY,official_office,Aleksanterinkatu 17 A,Lahti,,Finland,FI,60.9827896,25.6582217,active,https://www.ey.com/en_gl/locations/finland#lahti-lahti,EY global office-locations JSON directory,source_coordinate,directory_complete,2026-07-18
ey-fi-oulu-oulu-torikatu,EY,Ernst & Young Oy,official_office,"Torikatu 18, 2 krs.",Oulu,,Finland,FI,65.01253,25.46808,active,https://www.ey.com/en_gl/locations/finland#oulu-oulu-torikatu,EY global office-locations JSON directory,source_coordinate,directory_complete,2026-07-18
ey-fi-kuopio-kuopio,EY,EY,official_office,"Puijonkatu 29 Lt. 4, C-rappu, 2. krs, 70100 Kuopio",Kuopio,,Finland,FI,62.8944629,27.6816073,active,https://www.ey.com/en_gl/locations/finland#kuopio-kuopio,EY global office-locations JSON directory,source_coordinate,directory_complete,2026-07-18
ey-fi-kouvola-kouvola,EY,EY,official_office,Ilmarinkuja 3,Kouvola,,Finland,FI,60.8706274,26.7127421,active,https://www.ey.com/en_gl/locations/finland#kouvola-kouvola,EY global office-locations JSON directory,source_coordinate,directory_complete,2026-07-18
ey-fi-seinajoki-seinaejoki,EY,EY,official_office,Tiedekatu 2 (D-talo),Seinäjoki,,Finland,FI,62.7866838,22.8194192,active,https://www.ey.com/en_gl/locations/finland#seinaejoki-seinaejoki,EY global office-locations JSON directory,source_coordinate,directory_complete,2026-07-18
ey-fi-jyvaskyla-jyvaeskylae,EY,EY,official_office,Piippukatu 11 (8krs),Jyväskylä,,Finland,FI,62.241100255021195,25.75733336177935,active,https://www.ey.com/en_gl/locations/finland#jyvaeskylae-jyvaeskylae,EY global office-locations JSON directory,source_coordinate,directory_complete,2026-07-18
ey-fi-kokkola-kokkola,EY,EY,official_office,Tehtaankatu 3-5,Kokkola,,Finland,FI,63.8361215,23.133548,active,https://www.ey.com/en_gl/locations/finland#kokkola-kokkola,EY global office-locations JSON directory,source_coordinate,directory_complete,2026-07-18
ey-fi-lappeenranta-lappeenranta,EY,EY,official_office,Kauppakatu 32,Lappeenranta,,Finland,FI,61.05908,28.18615,active,https://www.ey.com/en_gl/locations/finland#lappeenranta-lappeenranta,EY global office-locations JSON directory,source_coordinate,directory_complete,2026-07-18
ey-fi-hameenlinna-haemeenlinna,EY,EY,official_office,"Innopark 1, Vankanlähde 7",Hämeenlinna,,Finland,FI,60.975611,24.477583,active,https://www.ey.com/en_gl/locations/finland#haemeenlinna-haemeenlinna,EY global office-locations JSON directory,source_coordinate,directory_complete,2026-07-18
ey-hu-pecs-ey-pecs,EY,EY,official_office,"Nagy Lajos király útja 13,",Pécs,,Hungary,HU,46.07563178837654,18.228127338612317,active,https://www.ey.com/en_gl/locations/hungary#pecs-ey-pecs,EY global office-locations JSON directory,source_coordinate,directory_complete,2026-07-18
ey-hu-debrecen-debrecen,EY,EY,official_office,"4025 Debrecen, Piac utca 77.,",Debrecen,,Hungary,HU,47.52525095483332,21.62635508866078,active,https://www.ey.com/en_gl/locations/hungary#debrecen-debrecen,EY global office-locations JSON directory,source_coordinate,directory_complete,2026-07-18
ey-hu-budapest-budapest,EY,EY,official_office,"1132 Budapest, Váci út 20.,",Budapest,,Hungary,HU,47.5141269,19.0581187,active,https://www.ey.com/en_gl/locations/hungary#budapest-budapest,EY global office-locations JSON directory,source_coordinate,directory_complete,2026-07-18
ey-gi-gibraltar-gibraltar,EY,EY,official_office,Regal House Queensway,Gibraltar,,Gibraltar,GI,36.142949,-5.355054,active,https://www.ey.com/en_gl/locations/gibraltar#gibraltar-gibraltar,EY global office-locations JSON directory,source_coordinate,directory_complete,2026-07-18
ey-si-ljubljana-ey-parthenon-ljubljana,EY,EY-Parthenon Ljubljana,official_office,Dunaska cesta 111,Ljubljana,,Slovenia,SI,46.074706,14.510146,active,https://www.ey.com/en_gl/locations/slovenia#ljubljana-ey-parthenon-ljubljana,EY global office-locations JSON directory,source_coordinate,directory_complete,2026-07-18
ey-si-ljubljana-ljubljana,EY,EY,official_office,Dunajska cesta 111,Ljubljana,,Slovenia,SI,46.0745644,14.5101465,active,https://www.ey.com/en_gl/locations/slovenia#ljubljana-ljubljana,EY global office-locations JSON directory,source_coordinate,directory_complete,2026-07-18
ey-tt-port-of-spain-port-of-spain,EY,EY,official_office,"P.O. Box 158, 5-7 Sweet Briar Road, St. Clair",Port-Of-Spain,,Trinidad and Tobago,TT,10.6668109,-61.5201873,active,https://www.ey.com/en_gl/locations/trinidad-and-tobago#port-of-spain-port-of-spain,EY global office-locations JSON directory,source_coordinate,directory_complete,2026-07-18
ey-mk-skopje-skopje,EY,Ernst & Young North Macedonia,official_office,"St.Zeleznicka no.41, floor 5",Skopje,,North Macedonia,MK,41.98948571502684,21.430165218468595,active,https://www.ey.com/en_gl/locations/north-macedonia#skopje-skopje,EY global office-locations JSON directory,source_coordinate,directory_complete,2026-07-18
ey-ng-lagos-lagos,EY,Ernst & Young,official_office,"UBA House, 10th and 13th Floor 57, Marina, Lagos, Nigeria",Lagos,Lagos,Nigeria,NG,6.45529,3.385305,active,https://www.ey.com/en_gl/locations/nigeria#ng-lagos-lagos,EY global office-locations JSON directory,source_coordinate,directory_complete,2026-07-18
ey-ng-port-harcourt-rivers-state,EY,Ernst & Young,official_office,"10 Olu-Obasanjo Road, Charis Plaza, Rivers State, Nigeria,",Port Harcourt,Rivers State,Nigeria,NG,4.8014,6.9955,active,https://www.ey.com/en_gl/locations/nigeria#ng-rivers-state-rivers-state,EY global office-locations JSON directory,source_coordinate,directory_complete,2026-07-18
ey-ng-abuja-abuja,EY,Ernst & Young,official_office,"Total Energies House, 2nd Floor, Tower 2, Plot 247 Herbert Macaulay Way, Central Business District, Federal Capital Territory,",Abuja,Abuja,Nigeria,NG,0,0,active,https://www.ey.com/en_gl/locations/nigeria#ng-abuja-abuja,EY global office-locations JSON directory,source_coordinate,directory_complete,2026-07-18
ey-ky-grand-cayman-grand-cayman,EY,EY Cayman Ltd.,official_office,62 Forum Lane Camana Bay P.O. Box 510,Grand Cayman,,Cayman Islands,KY,19.3219776,-81.3781114,active,https://www.ey.com/en_gl/locations/cayman-islands#grand-cayman-grand-cayman,EY global office-locations JSON directory,source_coordinate,directory_complete,2026-07-18
ey-ky-grand-cayman-cayman-islands-wavespace,EY,EY wavespace Cayman,official_office,"1 Nexus Way Camana Bay P.O. Box 510,",Grand Cayman,,Cayman Islands,KY,19.320581306284886,-81.37773575416124,active,https://www.ey.com/en_gl/locations/cayman-islands#grand-cayman-cayman-islands-wavespace,EY global office-locations JSON directory,source_coordinate,directory_complete,2026-07-18
ey-pk-lahore-lahore,EY,EY,official_office,"EY Ford Rhodes, P.O. Box 104, Pace Mall Building, 4th Floor, 96-B/1, M.M. Alam Road, Gulberg II, Lahore 54660, Islamic Republic of Pakistan",Lahore,,Pakistan,PK,31.472604789187617,74.3185312454595,active,https://www.ey.com/en_gl/locations/pakistan#lahore-lahore,EY global office-locations JSON directory,source_coordinate,directory_complete,2026-07-18
ey-pk-lahore-ey,EY,EY,official_office,"Rapid Innovation (Private) Limited, Naveena Tower, 4th Floor, 35 C3, Gulberg III, Islamic Republic of Pakistan",Lahore,,Pakistan,PK,31.505385962572987,74.34825542384486,active,https://www.ey.com/en_gl/locations/pakistan#lahore-ey,EY global office-locations JSON directory,source_coordinate,directory_complete,2026-07-18
ey-pk-karachi-karachi,EY,EY and EY Parthenon,official_office,"EY Ford Rhodes, 17th – 18th floor, West Wing, Sky Tower, Dolmen City, Clifton Block 4, Pakistan,",Karachi,,Pakistan,PK,24.801573806422535,67.03174648292666,active,https://www.ey.com/en_gl/locations/pakistan#karachi-karachi,EY global office-locations JSON directory,source_coordinate,directory_complete,2026-07-18
ey-pk-karachi-karachi-1,EY,EY,official_office,"Rapid Innovation (Private) Limited, 25th Floor, Sky Tower - West Wing, Dolmen City, HC-3, Marine Drive, Clifton Block 4, Islamic Republic of Pakistan",Karachi,,Pakistan,PK,24.801593284959225,67.03111347934846,active,https://www.ey.com/en_gl/locations/pakistan#karachi-karachi-1,EY global office-locations JSON directory,source_coordinate,directory_complete,2026-07-18
ey-pk-islamabad-islamabad,EY,EY,official_office,"EY Ford Rhodes, 13th Floor, Randhawa Tower, Plot B-3, New Blue Area F-9/G-9",Islamabad,,Pakistan,PK,33.691781842408695,73.02226602447688,active,https://www.ey.com/en_gl/locations/pakistan#islamabad-islamabad,EY global office-locations JSON directory,source_coordinate,directory_complete,2026-07-18
ey-lc-rodney-bay-rodney-bay,EY,EY,official_office,"2nd Floor Mardini Building, Rodney Bay, Gros Islet",Rodney Bay,,Saint Lucia,LC,14.085438,-60.949863,active,https://www.ey.com/en_gl/locations/saint-lucia#rodney-bay-rodney-bay,EY global office-locations JSON directory,source_coordinate,directory_complete,2026-07-18
ey-ae-dubai-dubai,EY,EY,official_office,"ICD Brookfield Place, Al Mustaqbal Street, Dubai International Financial Centre, P.O. Box 9267",Dubai,,United Arab Emirates,AE,25.211806,55.2805,active,https://www.ey.com/en_gl/locations/united-arab-emirates#dubai-dubai,EY global office-locations JSON directory,source_coordinate,directory_complete,2026-07-18
ey-ae-dubai-ey-parthenon-dubai,EY,EY and EY Parthenon ,official_office,"ICD Brookfield Place, Ground Floor, Al-Mustaqbal Street, Dubai International Financial Centre, Emirate of Dubai, United Arab Emirates",Dubai,,United Arab Emirates,AE,25.211808816156754,55.28026072936595,active,https://www.ey.com/en_gl/locations/united-arab-emirates#dubai-ey-parthenon-dubai,EY global office-locations JSON directory,source_coordinate,directory_complete,2026-07-18
ey-ae-sharjah-ey,EY,EY,official_office,"City Gate Tower, 14th Floor, Office No. 1402, Al-Ittihad Street, Emirate of Sharjah, United Arab Emirates",Sharjah,,United Arab Emirates,AE,25.303528564657444,55.36720183704121,active,https://www.ey.com/en_gl/locations/united-arab-emirates#sharjah-ey,EY global office-locations JSON directory,source_coordinate,directory_complete,2026-07-18
ey-ae-abu-dhabi-ey,EY,EY,official_office,"Office 1603, 16th floor, Tamouh Tower, Al Reem Island, Emirate of Abu Dhabi, United Arab Emirates",Abu Dhabi,,United Arab Emirates,AE,24.48833974417275,54.39502419467813,active,https://www.ey.com/en_gl/locations/united-arab-emirates#abu-dhabi-ey,EY global office-locations JSON directory,source_coordinate,directory_complete,2026-07-18
ey-ae-abu-dhabi-abu-dhabi,EY,EY and EY Parthenon ,official_office,"Nation Towers, Tower 2, 26th and 27th floor, Corniche Road West, Emirate of Abu Dhabi, United Arab Emirates",Abu Dhabi,,United Arab Emirates,AE,24.465161154457853,54.32896341002005,active,https://www.ey.com/en_gl/locations/united-arab-emirates#abu-dhabi-abu-dhabi,EY global office-locations JSON directory,source_coordinate,directory_complete,2026-07-18
ey-dz-alger-alger,EY,EY,official_office,"Oriental Business Park, Quartier des affaires d’Alger, Bab Ezzouar",Alger,,Algeria,DZ,36.737627,3.154732,active,https://www.ey.com/en_gl/locations/algeria#alger-alger,EY global office-locations JSON directory,source_coordinate,directory_complete,2026-07-18
ey-pt-porto-porto,EY,EY,official_office,"ICON Tower | Rua Direita de Francos, 165 – 14º Porto",Porto,,Portugal,PT,41.1673932,-8.6447711,active,https://www.ey.com/en_gl/locations/portugal#porto-porto,EY global office-locations JSON directory,source_coordinate,directory_complete,2026-07-18
ey-kg-bishkek-bishkek,EY,EY,official_office,"Avangard Business Center, Toktogul st., 125/1,",Bishkek,,Kyrgyz Republic,KG,42.87274,74.59767,active,https://www.ey.com/en_gl/locations/kyrgyz-republic#bishkek-bishkek,EY global office-locations JSON directory,source_coordinate,directory_complete,2026-07-18
ey-lk-matara-matara,EY,EY,official_office,"No. 53B 1/1, Sri Rathnapala Mawatha, Matara",Matara,,Sri Lanka,LK,5.954560309707722,80.53368456479896,active,https://www.ey.com/en_gl/locations/sri-lanka#matara-matara,EY global office-locations JSON directory,source_coordinate,directory_complete,2026-07-18
ey-lk-kandy-kandy,EY,EY,official_office,839/2 Peradeniya Road,Kandy,,Sri Lanka,LK,7.276975800000001,80.615532,active,https://www.ey.com/en_gl/locations/sri-lanka#kandy-kandy,EY global office-locations JSON directory,source_coordinate,directory_complete,2026-07-18
ey-lk-galle-galle,EY,EY,official_office,"No. 207/3/1/1, Laxman Wijerathna Mawatha, Wackwella Road, Galle.",Galle,,Sri Lanka,LK,6.041899330492972,80.2145079955971,active,https://www.ey.com/en_gl/locations/sri-lanka#galle-galle,EY global office-locations JSON directory,source_coordinate,directory_complete,2026-07-18
ey-lk-colombo-colombo,EY,EY,official_office,"Rotunda Towers, No. 109, Galle Road",Colombo,,Sri Lanka,LK,6.916059221799407,79.8486901635585,active,https://www.ey.com/en_gl/locations/sri-lanka#colombo-colombo,EY global office-locations JSON directory,source_coordinate,directory_complete,2026-07-18
ey-am-yerevan-yerevan,EY,EY,official_office,"Ernst & Young CJSC (EY Armenia), 2 Vazgen Sargsyan St., Kamar Business Center, 7th floor,",Yerevan,,Armenia,AM,40.1755451714,44.5096063614,active,https://www.ey.com/en_gl/locations/armenia#yerevan-yerevan,EY global office-locations JSON directory,source_coordinate,directory_complete,2026-07-18
ey-mv-male-male,EY,EY,official_office,"G. Shafag, 2A-2B, Rahdhebai Magu",Malé,,Maldives,MV,4.176398,73.511059,active,https://www.ey.com/en_gl/locations/maldives#male-male,EY global office-locations JSON directory,source_coordinate,directory_complete,2026-07-18
ey-ec-guayaquil-guayaquil,EY,EY,official_office,"Av. Francisco Orellana Edificio Centrum, Piso 14",Guayaquil,,Ecuador,EC,-2.1709979,-79.9223592,active,https://www.ey.com/en_gl/locations/ecuador#guayaquil-guayaquil,EY global office-locations JSON directory,source_coordinate,directory_complete,2026-07-18
ey-ec-quito-quito,EY,EY,official_office,"Stratta Building, Inglaterra & Amazonas Avenue, 11th Floor",Quito,,Ecuador,EC,-0.2061997,-78.4844304,active,https://www.ey.com/en_gl/locations/ecuador#quito-quito,EY global office-locations JSON directory,source_coordinate,directory_complete,2026-07-18
ey-hr-zagreb-zagreb,EY,EY,official_office,Radnicka cesta 50,Zagreb,,Croatia,HR,45.8024441,16.0021064,active,https://www.ey.com/en_gl/locations/croatia#zagreb-zagreb,EY global office-locations JSON directory,source_coordinate,directory_complete,2026-07-18
ey-hr-zagreb-ey-parthenon-zagreb,EY,EY-Parthenon Zagreb,official_office,Radnicka cesta 50,Zagreb,,Croatia,HR,45.802639,16.002171,active,https://www.ey.com/en_gl/locations/croatia#zagreb-ey-parthenon-zagreb,EY global office-locations JSON directory,source_coordinate,directory_complete,2026-07-18
ey-in-kochi-abad-nucleus-9th-floor,EY,EY,official_office,"9th Floor, Abad Nucleus, NH-49, Maradu, Kochi",Kochi,,India,IN,9.9401847,76.3312017,active,https://www.ey.com/en_gl/locations/india#kochi-abad-nucleus-9th-floor,EY global office-locations JSON directory,source_coordinate,directory_complete,2026-07-18
ey-in-new-delhi-new-delhi,EY,EY,official_office,"3rd & 6th Floor, Worldmark-1, IGI Airport Hospitality District, Aerocity",New Delhi,,India,IN,28.5504197,77.1220802,active,https://www.ey.com/en_gl/locations/india#new-delhi-new-delhi,EY global office-locations JSON directory,source_coordinate,directory_complete,2026-07-18
ey-in-mumbai-mumbai-nkp-goregaon,EY,EY,official_office,"5th Floor Block B-2, Nirlon Knowledge Park, Off. Western Express Highway, Goregaon (E)",Mumbai,,India,IN,19.1549027,72.85289390000001,active,https://www.ey.com/en_gl/locations/india#mumbai-mumbai-nkp-goregaon-,EY global office-locations JSON directory,source_coordinate,directory_complete,2026-07-18
ey-in-mumbai-6th-floor-express-towers,EY,EY,official_office,"14th Floor, The Ruby, 29 Senapati Bapat Marg, Dadar (West)",Mumbai,,India,IN,19.024129,72.844923,active,https://www.ey.com/en_gl/locations/india#mumbai-6th-floor-express-towers,EY global office-locations JSON directory,source_coordinate,directory_complete,2026-07-18
ey-in-mumbai-14-mittal-chambers-1st-floor,EY,EY,official_office,"Gigaplex IT Park, Unit No. 301, 3rd Floor, Building No. 1, Mindspace Airoli West (Gigaplex), Plot No. IT-5, MIDC Knowledge Corridor, Airoli (West), Navi Mumbai",Mumbai,,India,IN,19.174874339040795,72.99220552055672,active,https://www.ey.com/en_gl/locations/india#mumbai-14-mittal-chambers-1st-floor,EY global office-locations JSON directory,source_coordinate,directory_complete,2026-07-18
ey-in-mumbai-14th-floor-the-ruby,EY,EY,official_office,"Office No.1404-1405, 14th Floor, Tower 1, One India Bulls Centre, 841 Jupiter Mills, Off. Senapati Bapat Marg, Lower Parel",Mumbai,,India,IN,19.0243645,72.843757,active,https://www.ey.com/en_gl/locations/india#mumbai-14th-floor-the-ruby,EY global office-locations JSON directory,source_coordinate,directory_complete,2026-07-18
ey-in-kolkata-kolkata,EY,EY,official_office,"22, Camac Street, 3rd Floor, Block 'C'",Kolkata,,India,IN,22.5470029,88.3531818,active,https://www.ey.com/en_gl/locations/india#kolkata-kolkata,EY global office-locations JSON directory,source_coordinate,directory_complete,2026-07-18
ey-in-pune-c-401-4th-floor,EY,EY,official_office,"C-401, 4th Floor, Panchshil Tech Park Yerwada, ( Near Don Bosco School )",Pune,,India,IN,18.5660985,73.9179329,active,https://www.ey.com/en_gl/locations/india#pune-c-401-4th-floor,EY global office-locations JSON directory,source_coordinate,directory_complete,2026-07-18
ey-in-pune-muttha-towers-6th-floor,EY,EY,official_office,"10 Floor, Smartworks, M-Agile, Pan Card Club Road, Baner, Taluka Haveli, Maharashtra.",Pune,,India,IN,18.5522846,73.8920525,active,https://www.ey.com/en_gl/locations/india#pune-muttha-towers-6th-floor,EY global office-locations JSON directory,source_coordinate,directory_complete,2026-07-18
ey-in-pune-level-g-river-side-business-bay,EY,EY,official_office,"Suite-2, Level-6, Muttha Tower, SR No. 103/123/1, Yerwada, (Near Don Bosco School )",Pune,,India,IN,18.5307749,73.8621515,active,https://www.ey.com/en_gl/locations/india#pune-level-g-river-side-business-bay,EY global office-locations JSON directory,source_coordinate,directory_complete,2026-07-18
ey-in-bhubaneswar-ey,EY,EY,official_office,"8th Floor, O-Hub, Tower A, Chandaka SEZ, Odisha",Bhubaneswar,,India,IN,20.35,85.8,active,https://www.ey.com/en_gl/locations/india#india-bhubaneswar-ey,EY global office-locations JSON directory,source_coordinate,directory_complete,2026-07-18
ey-in-chennai-tidel-park-6th-7th-floor,EY,EY,official_office,"6th & 7th Floor ''A'' Block , Tidel Park No 4 Rajiv Gandhi Salai, Taramani",Chennai,,India,IN,13.00673,80.24731,active,https://www.ey.com/en_gl/locations/india#chennai-tidel-park-6th-7th-floor,EY global office-locations JSON directory,source_coordinate,directory_complete,2026-07-18
ey-in-jamshedpur-jamshedpur,EY,EY,official_office,"1st Floor, Shantiniketan Building, Holding No. 1, SB Shop Area, Bistupur",Jamshedpur,,India,IN,22.7869299,86.1839169,active,https://www.ey.com/en_gl/locations/india#jamshedpur-jamshedpur,EY global office-locations JSON directory,source_coordinate,directory_complete,2026-07-18
ey-in-chandigarh-chandigarh,EY,EY,official_office,"ELANTE OFFICES, Unit No. B 613-615, 6th Floor, Industrial & Business Park, Phase-I",Chandigarh,,India,IN,30.7419283,76.7909801,active,https://www.ey.com/en_gl/locations/india#chandigarh-chandigarh,EY global office-locations JSON directory,source_coordinate,directory_complete,2026-07-18
ey-in-bengaluru-ey-1,EY,EY,official_office,"1th Floor, Tower A, Prestige Shantiniketan, Mahadevapura Post, Whitefield, ,",Bengaluru,,India,IN,12.9736,77.7481,active,https://www.ey.com/en_gl/locations/india#bengaluru-ey-1,EY global office-locations JSON directory,source_coordinate,directory_complete,2026-07-18
ey-in-bengaluru-ub-city-canberra-block,EY,EY,official_office,"6th, 12th & 13th floor, ""UB City""Canberra Block, No.24, Vittal Mallya Road",Bengaluru,,India,IN,12.9718231,77.5960762,active,https://www.ey.com/en_gl/locations/india#bengaluru-ub-city-canberra-block,EY global office-locations JSON directory,source_coordinate,directory_complete,2026-07-18
ey-in-bengaluru-ey,EY,EY,official_office,"3rd & 4th Floor, MARKSQUARE, #61, St. Mark's Road, Shantala Nagar,",Bengaluru,,India,IN,12.9716,77.6074,active,https://www.ey.com/en_gl/locations/india#bengaluru-ey,EY global office-locations JSON directory,source_coordinate,directory_complete,2026-07-18
ey-in-bengaluru-divyasree-chambers,EY,EY,official_office,"Ground Floor, ‘A’ wing, Divyasree Chambers, # 11, O’Shaughnessy Road, Langford Gardens",Bengaluru,,India,IN,12.9618989,77.5996331,active,https://www.ey.com/en_gl/locations/india#bengaluru-divyasree-chambers,EY global office-locations JSON directory,source_coordinate,directory_complete,2026-07-18
ey-in-jaipur-ey,EY,EY,official_office,"9th Floor, Jewel of India, Horizon Tower, JLN Marg, Opp Jaipur Stock Exchange",Jaipur,Rajasthan,India,IN,26.859,75.805,active,https://www.ey.com/en_gl/locations/india#in-jaipur-ey,EY global office-locations JSON directory,source_coordinate,directory_complete,2026-07-18
ey-in-trivandrum-wavespace-trivandrum,EY,EY wavespace Trivandrum,official_office,"Drishya, Ground floor, KINFRA Film & Video Park, Trivandrum, Kerala, India",Trivandrum,,India,IN,8.5804206,76.8781315,active,https://www.ey.com/en_gl/locations/india#trivandrum-wavespace-trivandrum,EY global office-locations JSON directory,source_coordinate,directory_complete,2026-07-18
ey-in-ahmedabad-ahmedabad,EY,EY,official_office,"22nd Floor, B Wing, Privilon, Ambli BRT Road, Behind Iskcon Temple, Off SG Highway",Ahmedabad,,India,IN,23.0218981,72.5511266,active,https://www.ey.com/en_gl/locations/india#ahmedabad-ahmedabad,EY global office-locations JSON directory,source_coordinate,directory_complete,2026-07-18
ey-in-gurugram-golf-view-corporate-tower-b,EY,EY,official_office,"Plot no. 67, Sector 44, 122003 Gurugram, Haryana",Gurugram,,India,IN,28.453986,77.070304,active,https://www.ey.com/en_gl/locations/india#gurugram-golf-view-corporate-tower-b,EY global office-locations JSON directory,source_coordinate,directory_complete,2026-07-18
ey-in-noida-noida,EY,EY,official_office,"4th & 5th Floor, Plot No 2B, Tower 2, Sector 126, Gautam Budh Nagar, U.P.",Noida,,India,IN,28.5399704,77.3439753,active,https://www.ey.com/en_gl/locations/india#noida-noida,EY global office-locations JSON directory,source_coordinate,directory_complete,2026-07-18
ey-in-hyderabad-skyview,EY,EY,official_office,"The Skyview 10, 18'F Survey no 83, 1, Rai Durg, Telangana",Hyderabad,,India,IN,17.416315,78.389847,active,https://www.ey.com/en_gl/locations/india#hyderabad-skyview,EY global office-locations JSON directory,source_coordinate,directory_complete,2026-07-18
ey-md-chisinau-chisinau,EY,EY,official_office,"51, Alexandru cel Bun str.",Chisinau,,Moldova Republic of,MD,47.0256149,28.8394917,active,https://www.ey.com/en_gl/locations/moldova-republic-of#chisinau-chisinau,EY global office-locations JSON directory,source_coordinate,directory_complete,2026-07-18
ey-sa-jeddah-jeddah,EY,EY and EY Parthenon,official_office,"King’s Road Tower, 13th Floor, King Abdul Aziz Road (Malek Road), Jeddah 21441, Kingdom of Saudi Arabia",Jeddah,,Saudi Arabia,SA,21.55937810116556,39.12489540990582,active,https://www.ey.com/en_gl/locations/saudi-arabia#jeddah-jeddah,EY global office-locations JSON directory,source_coordinate,directory_complete,2026-07-18
ey-sa-al-khobar-al-khobar,EY,EY and EY Parthenon,official_office,"Adeer Tower, 15th Floor, Prince Turki Bin Abdulaziz Street, Al Khobar Corniche, Al Khobar 31952, Kingdom of Saudi Arabia",Al Khobar,,Saudi Arabia,SA,26.31186110904679,50.22399464502825,active,https://www.ey.com/en_gl/locations/saudi-arabia#al-khobar-al-khobar,EY global office-locations JSON directory,source_coordinate,directory_complete,2026-07-18
ey-sa-riyadh-ey-parthenon-riyadh,EY,EY and EY Parthenon,official_office,"Al Faisaliah Office Tower, 14th Floor, King Fahad Road, Al Olaya District, Riyadh 7425, Kingdom of Saudi Arabia",Riyadh,,Saudi Arabia,SA,24.690364185976804,46.6851099235223,active,https://www.ey.com/en_gl/locations/saudi-arabia#riyadh-ey-parthenon-riyadh,EY global office-locations JSON directory,source_coordinate,directory_complete,2026-07-18
ey-sa-riyadh-riyadh,EY,EY and EY MENA Headquarters ,official_office,"KAFD Building 1.11-A, 8th Floor, South Tower, Financial Boulevard, King Abdullah Financial District, King Fahad Road, Al Aqeeq District",Riyadh,,Saudi Arabia,SA,24.765717484645823,46.64234129860252,active,https://www.ey.com/en_gl/locations/saudi-arabia#riyadh-riyadh,EY global office-locations JSON directory,source_coordinate,directory_complete,2026-07-18
ey-vn-hanoi-hanoi,EY,EY,official_office,"8th Floor, CornerStone Building, No. 16 Phan Chu Trinh Street, Cua Nam Ward, Hanoi City, Vietnam",Hanoi,,Vietnam,VN,21.0211656,105.8556733,active,https://www.ey.com/en_gl/locations/vietnam#hanoi-hanoi,EY global office-locations JSON directory,source_coordinate,directory_complete,2026-07-18
ey-vn-ho-chi-minh-city-ho-chi-minh-city,EY,EY,official_office,"20th Floor, Bitexco Financial Tower, No. 2 Hai Trieu Street, Sai Gon ward, Ho Chi Minh City, Vietnam",Ho Chi Minh City,,Vietnam,VN,10.7718891,106.7041496,active,https://www.ey.com/en_gl/locations/vietnam#ho-chi-minh-city-ho-chi-minh-city,EY global office-locations JSON directory,source_coordinate,directory_complete,2026-07-18
ey-kr-seoul-taeyoung-building-3-8f-111,EY,EY,official_office,"2-8F, Taeyoung Building, 111 Yeouigongwon-ro, Yeongdeungpo-gu",Seoul,,Korea Republic of,KR,37.5297509,126.9257652,active,https://www.ey.com/en_gl/locations/korea-republic-of#seoul-taeyoung-building-3-8f-111-,EY global office-locations JSON directory,source_coordinate,directory_complete,2026-07-18
ey-kr-seoul-ey-parthenon-seoul,EY,EY,official_office,"49-50F, Parc.1 Tower2, 108 Yeoui-daero, Yeongdeungpo-gu",Seoul,,Korea Republic of,KR,37.527085,126.927849,active,https://www.ey.com/en_gl/locations/korea-republic-of#seoul-ey-parthenon-seoul,EY global office-locations JSON directory,source_coordinate,directory_complete,2026-07-18
ey-kr-busan-busan,EY,EY,official_office,"The Korean Teachers' Credit Union Building, #1104, 192 Jungang-daero, Dong-gu",Busan,,Korea Republic of,KR,35.115122,129.041266,active,https://www.ey.com/en_gl/locations/korea-republic-of#busan-busan,EY global office-locations JSON directory,source_coordinate,directory_complete,2026-07-18
ey-cz-brno-brno,EY,EY,official_office,Orlí 36,Brno,,Czech Republic,CZ,49.1945467,16.6140478,active,https://www.ey.com/en_gl/locations/czech-republic#brno-brno,EY global office-locations JSON directory,source_coordinate,directory_complete,2026-07-18
ey-cz-ostrava-ostrava,EY,EY,official_office,28. října 2663/150,Ostrava,,Česká republika,CZ,49.8300964,18.2659895,active,https://www.ey.com/en_gl/locations/česká-republika#ostrava-ostrava,EY global office-locations JSON directory,source_coordinate,directory_complete,2026-07-18
ey-cz-prague-prague1,EY,EY-Parthenon Prague,official_office,Na Florenci 2116/15,Prague,,Czech Republic,CZ,50.0888857,14.4352864,active,https://www.ey.com/en_gl/locations/czech-republic#prague-prague1,EY global office-locations JSON directory,source_coordinate,directory_complete,2026-07-18
ey-cz-prague-prague,EY,EY,official_office,Na Florenci 2116/15,Prague,,Czech Republic,CZ,50.0888857,14.4352864,active,https://www.ey.com/en_gl/locations/czech-republic#prague-prague,EY global office-locations JSON directory,source_coordinate,directory_complete,2026-07-18
ey-nl-amsterdam-amsterdam,EY,EY,official_office,"Cross Towers, Antonio Vivaldistraat 150,",Amsterdam,,Netherlands,NL,52.3377111,4.8850045,active,https://www.ey.com/en_gl/locations/netherlands#amsterdam-amsterdam,EY global office-locations JSON directory,source_coordinate,directory_complete,2026-07-18
ey-nl-arnhem-arnhem,EY,EY,official_office,"Gebouw LB, verdieping 2, Westervoortsedijk 73,",Arnhem,,Netherlands,NL,51.968609,5.943968,active,https://www.ey.com/en_gl/locations/netherlands#arnhem-arnhem,EY global office-locations JSON directory,source_coordinate,directory_complete,2026-07-18
ey-nl-eindhoven-eindhoven,EY,EY,official_office,"Prof.Dr. Dorgelolaan 12,",Eindhoven,,Netherlands,NL,51.44504,5.4872578,active,https://www.ey.com/en_gl/locations/netherlands#eindhoven-eindhoven,EY global office-locations JSON directory,source_coordinate,directory_complete,2026-07-18
ey-nl-groningen-groningen,EY,EY,official_office,"Leonard Springerlaan, 17,",Groningen,,Netherlands,NL,53.2030673,6.5528144,active,https://www.ey.com/en_gl/locations/netherlands#groningen-groningen,EY global office-locations JSON directory,source_coordinate,directory_complete,2026-07-18
ey-nl-hengelo-hengelo,EY,EY,official_office,"Expolaan 50, Verdieping 10",Hengelo,,Netherlands,NL,52.28491,6.76734,active,https://www.ey.com/en_gl/locations/netherlands#hengelo-hengelo,EY global office-locations JSON directory,source_coordinate,directory_complete,2026-07-18
ey-nl-maastricht-maastricht,EY,EY,official_office,"Buitenplaats Vaeshartelt, Weert 11,",Maastricht,,Netherlands,NL,50.879478,5.7262759,active,https://www.ey.com/en_gl/locations/netherlands#maastricht-maastricht,EY global office-locations JSON directory,source_coordinate,directory_complete,2026-07-18
ey-nl-rotterdam-rotterdam-boompjes,EY,EY,official_office,"Rotterdam Boompjes, Boompjes 258,",Rotterdam,,Netherlands,NL,51.91432,4.4864643,active,https://www.ey.com/en_gl/locations/netherlands#rotterdam-rotterdam-boompjes,EY global office-locations JSON directory,source_coordinate,directory_complete,2026-07-18
ey-nl-the-hague-the-hague,EY,EY,official_office,"Wassenaarseweg, 80,",The Hague,,Netherlands,NL,52.0931369,4.3204356,active,https://www.ey.com/en_gl/locations/netherlands#the-hague-the-hague,EY global office-locations JSON directory,source_coordinate,directory_complete,2026-07-18
ey-nl-utrecht-reactorweg,EY,EY Finance B.V. (formerly Bluefield Finance B.V.),official_office,"Reactorweg 187,",Utrecht,,Netherlands,NL,52.114402,5.047419,active,https://www.ey.com/en_gl/locations/netherlands#utrecht-reactorweg,EY global office-locations JSON directory,source_coordinate,directory_complete,2026-07-18
ey-nl-utrecht-yin-yang,EY,EY,official_office,"Yin-Yang Euclideslaan 1,",Utrecht,,Netherlands,NL,52.0895339,5.1483171,active,https://www.ey.com/en_gl/locations/netherlands#utrecht-yin-yang,EY global office-locations JSON directory,source_coordinate,directory_complete,2026-07-18
ey-nl-zwolle-zwolle,EY,EY,official_office,"Tilbury, Zwartewaterallee 56,",Zwolle,,Netherlands,NL,52.5229734,6.0941459,active,https://www.ey.com/en_gl/locations/netherlands#zwolle-zwolle,EY global office-locations JSON directory,source_coordinate,directory_complete,2026-07-18
ey-kz-astana-astana,EY,EY,official_office,"Talan Towers Offices, Dostyk Str., 16,",Astana,,Kazakhstan,KZ,51.125135,71.432865,active,https://www.ey.com/en_gl/locations/kazakhstan#astana-astana,EY global office-locations JSON directory,source_coordinate,directory_complete,2026-07-18
ey-kz-almaty-almaty,EY,EY,official_office,"Esentai Tower, 77/7, Al-Farabi Ave.,",Almaty,,Kazakhstan,KZ,43.2190777,76.9292402,active,https://www.ey.com/en_gl/locations/kazakhstan#almaty-almaty,EY global office-locations JSON directory,source_coordinate,directory_complete,2026-07-18
ey-ph-makati-city-national-life-insurance-building,EY,EY,official_office,"National Life Insurance Building, 6762 Ayala Avenue",Makati City,,Philippines,PH,14.555784,121.021928,active,https://www.ey.com/en_gl/locations/philippines#makati-city-national-life-insurance-building,EY global office-locations JSON directory,source_coordinate,directory_complete,2026-07-18
ey-ph-makati-city-7th-flr-sgv-building-i,EY,EY,official_office,"7th/flr SGV Building I, 6760 Ayala Avenue",Makati City,,Philippines,PH,14.5555534,121.022311,active,https://www.ey.com/en_gl/locations/philippines#makati-city-7th-flr-sgv-building-i,EY global office-locations JSON directory,source_coordinate,directory_complete,2026-07-18
ey-ph-makati-city-bankmer-building,EY,EY,official_office,"Bankmer Building, 6756 Ayala Avenue",Makati City,,Philippines,PH,14.5553732,121.0227142,active,https://www.ey.com/en_gl/locations/philippines#makati-city-bankmer-building,EY global office-locations JSON directory,source_coordinate,directory_complete,2026-07-18
ey-ph-makati-city-sti-holdings-building,EY,EY,official_office,"STI Holdings Building, 6764 Ayala Avenue",Makati City,,Philippines,PH,14.5560482,121.0216945,active,https://www.ey.com/en_gl/locations/philippines#makati-city-sti-holdings-building,EY global office-locations JSON directory,source_coordinate,directory_complete,2026-07-18
ey-ph-makati-city-sgv-ii-building,EY,EY,official_office,"SGV II Building, 6758 Ayala Avenue",Makati City,,Philippines,PH,14.555526,121.022547,active,https://www.ey.com/en_gl/locations/philippines#makati-city-sgv-ii-building,EY global office-locations JSON directory,source_coordinate,directory_complete,2026-07-18
ey-ph-baguio-city-baguio-city,EY,EY,official_office,"3F Insular Life Bldg., Legarda Road corner Abanao St.",Baguio City,,Philippines,PH,16.412632,120.591189,active,https://www.ey.com/en_gl/locations/philippines#baguio-city-baguio-city,EY global office-locations JSON directory,source_coordinate,directory_complete,2026-07-18
ey-ph-cavite-city-cavite-city,EY,EY,official_office,"2/F SGV Bldg. III, Gen. Trias Drive Tejero Rosario",Cavite City,,Philippines,PH,14.3951936,120.862879,active,https://www.ey.com/en_gl/locations/philippines#cavite-city-cavite-city,EY global office-locations JSON directory,source_coordinate,directory_complete,2026-07-18
ey-ph-general-santos-city-general-santos-city,EY,EY,official_office,"2/F SAFII Building II, Mansanitas Street, Cor. President Magsaysay Avenue",General Santos City,,Philippines,PH,6.1095663,125.1765867,active,https://www.ey.com/en_gl/locations/philippines#general-santos-city-general-santos-city,EY global office-locations JSON directory,source_coordinate,directory_complete,2026-07-18
ey-ph-cagayan-de-oro-city-cagayan-de-oro-city,EY,EY,official_office,"2/F Insular Life Building, Don Apolinar Velez St., Corner Uldarico Akut St.",Cagayan de Oro City,,Philippines,PH,8.4832085,124.6460158,active,https://www.ey.com/en_gl/locations/philippines#cagayan-de-oro-city-cagayan-de-oro-city,EY global office-locations JSON directory,source_coordinate,directory_complete,2026-07-18
ey-ph-cebu-unit-605-606-ayala-life-fgu-centre,EY,EY,official_office,"Unit 605 & 606, Ayala Life FGU Centre Mindanao Avenue corner Biliran Rd, Cebu Business Park",Cebu,,Philippines,PH,10.319622,123.90581,active,https://www.ey.com/en_gl/locations/philippines#cebu-unit-605-606-ayala-life-fgu-centre,EY global office-locations JSON directory,source_coordinate,directory_complete,2026-07-18
ey-ph-davao-city-davao-city,EY,EY,official_office,"8/F Pryce Tower, Pryce Business Park, JP Laurel Avenue",Davao City,,Philippines,PH,7.084192,125.611525,active,https://www.ey.com/en_gl/locations/philippines#davao-city-davao-city,EY global office-locations JSON directory,source_coordinate,directory_complete,2026-07-18
ey-id-jakarta-indonesia-stock-exchange-building,EY,EY,official_office,"Indonesia Stock Exchange Building, Tower 1, 13th Floor, Tower 2, 7th Floor, JL. Jend. Sudirman Kav. 52-53 South Jakarta",Jakarta,,Indonesia,ID,-6.2235983,106.8086851,active,https://www.ey.com/en_gl/locations/indonesia#jakarta-indonesia-stock-exchange-building,EY global office-locations JSON directory,source_coordinate,directory_complete,2026-07-18
ey-id-surabaya-plaza-bri-9th-floor,EY,EY,official_office,"Plaza BRI 9th Floor, Jl. Basuki Rachmat 122",Surabaya,,Indonesia,ID,-7.27287918,112.7415963,active,https://www.ey.com/en_gl/locations/indonesia#surabaya-plaza-bri-9th-floor,EY global office-locations JSON directory,source_coordinate,directory_complete,2026-07-18
ey-gr-heraklion-heraklion,EY,EY,official_office,"100, N. Plastira, Vassilika Vouton, Heraklion,",Crete,,Greece,GR,35.3065107,25.074596,active,https://www.ey.com/en_gl/locations/greece#heraklion-heraklion,EY global office-locations JSON directory,source_coordinate,directory_complete,2026-07-18
ey-gr-athens-athens,EY,EY,official_office,"8B, Chimarras Str., Marousi",Athens,,Greece,GR,38.0408603,23.8054456,active,https://www.ey.com/en_gl/locations/greece#athens-athens,EY global office-locations JSON directory,source_coordinate,directory_complete,2026-07-18
ey-gr-thessaloniki-thessaloniki,EY,EY,official_office,"14, Katouni Str.,",Thessaloniki,,Greece,GR,40.6350181,22.9373767,active,https://www.ey.com/en_gl/locations/greece#thessaloniki-thessaloniki,EY global office-locations JSON directory,source_coordinate,directory_complete,2026-07-18
ey-gr-patras-patra,EY,EY,official_office,"12, Agiou Nikolaou Str.,",Patras,,Greece,GR,38.248314,21.735481,active,https://www.ey.com/en_gl/locations/greece#patra-patra,EY global office-locations JSON directory,source_coordinate,directory_complete,2026-07-18
ey-tr-istanbul-ey-parthenon-istanbul,EY,EY-Parthenon Istanbul,official_office,"Orjin Plaza, Maslak No:27 Kat: 1-5, Eski Büyükdere Caddesi",Istanbul,,Türkiye,TR,41.108889,29.019611,active,https://www.ey.com/en_gl/locations/türkiye#istanbul-ey-parthenon-istanbul,EY global office-locations JSON directory,source_coordinate,directory_complete,2026-07-18
ey-tr-istanbul-istanbul,EY,EY Turkiye Istanbul Ofisi,official_office,"Orjin Plaza, Maslak No:27 Kat: 1-5, Eski Buyukdere Caddesi",Istanbul,,Türkiye,TR,41.108889,29.019611,active,https://www.ey.com/en_gl/locations/türkiye#istanbul-istanbul,EY global office-locations JSON directory,source_coordinate,directory_complete,2026-07-18
ey-tr-istanbul-ey-turkiye-istanbul-maltepe-ofisi,EY,EY Turkiye Istanbul - Maltepe Ofisi,official_office,"Cevizli Mahallesi Tugay yolu Caddesi No: 20 A/7, Maltepe",Istanbul,,Türkiye,TR,40.918694,29.169056,active,https://www.ey.com/en_gl/locations/türkiye#istanbul-ey-turkiye-istanbul---maltepe-ofisi,EY global office-locations JSON directory,source_coordinate,directory_complete,2026-07-18
ey-tr-izmir-izmir,EY,EY,official_office,"Mistral Tower, Çınarlı Mahallesi Ankara Asfaltı Caddesi No:15 Kat:23, Konak",Izmir,,Türkiye,TR,38.449111,27.185611,active,https://www.ey.com/en_gl/locations/türkiye#izmir-izmir,EY global office-locations JSON directory,source_coordinate,directory_complete,2026-07-18
ey-tr-bursa-bursa,EY,EY,official_office,"Odunluk Mahallesi Akpınar Caddesi No:21 R Plaza Kat:9-10, Nilüfer",Bursa,,Türkiye,TR,40.210861,28.998611,active,https://www.ey.com/en_gl/locations/türkiye#bursa-bursa,EY global office-locations JSON directory,source_coordinate,directory_complete,2026-07-18
ey-tr-ankara-ankara,EY,EY,official_office,"Mahall Ankara B Blok, Mustafa Kemal Mah. Dumlupınar Bulvarı 9. km [Danıştay Karşısı] No:274/7 Daire:191, Çankaya",Ankara,,Türkiye,TR,39.908694,32.753194,active,https://www.ey.com/en_gl/locations/türkiye#ankara-ankara,EY global office-locations JSON directory,source_coordinate,directory_complete,2026-07-18
ey-af-kabul-kabul,EY,EY,official_office,"House 1013, Street 2, Shirpoor Road",Kabul,,Afghanistan,AF,34.590703,69.203177,active,https://www.ey.com/en_gl/locations/afghanistan#kabul-kabul,EY global office-locations JSON directory,source_coordinate,directory_complete,2026-07-18
ey-no-trondheim-trondheim,EY,EY,official_office,"Havnegata 9, Postboks 1299 Torgarden",Trondheim,,Norway,NO,63.441608,10.40315,active,https://www.ey.com/en_gl/locations/norway#trondheim-trondheim,EY global office-locations JSON directory,source_coordinate,directory_complete,2026-07-18
ey-no-trondheim-ey-consulting,EY,EY Consulting,official_office,Brøttørkaia 13B,Trondheim,,Norway,NO,0,0,active,https://www.ey.com/en_gl/locations/norway#trondheim-ey-consulting,EY global office-locations JSON directory,source_coordinate,directory_complete,2026-07-18
ey-no-kristiansand-kristiansand,EY,EY,official_office,Markens gate 13,Kristiansand,,Norway,NO,58.14446669317695,7.995101199560965,active,https://www.ey.com/en_gl/locations/norway#kristiansand-kristiansand,EY global office-locations JSON directory,source_coordinate,directory_complete,2026-07-18
ey-no-stavanger-stavanger,EY,EY,official_office,Vassbotnen 11a (Forus Atrium),Sandnes,,Norway,NO,58.8892322,5.7134739,active,https://www.ey.com/en_gl/locations/norway#stavanger-stavanger,EY global office-locations JSON directory,source_coordinate,directory_complete,2026-07-18
ey-no-drammen-drammen,EY,EY,official_office,Dr. Hansteins gate 13,Drammen,,Norway,NO,59.7435869,10.2097342,active,https://www.ey.com/en_gl/locations/norway#drammen-drammen,EY global office-locations JSON directory,source_coordinate,directory_complete,2026-07-18
ey-no-stord-stord,EY,EY Skye,official_office,Osen 2,Stord,,Norway,NO,59.78058508119783,5.500748841329019,active,https://www.ey.com/en_gl/locations/norway#stord-stord,EY global office-locations JSON directory,source_coordinate,directory_complete,2026-07-18
ey-no-haugesund-haugesund,EY,EY,official_office,Kvaløygata 3,Haugesund,,Norway,NO,59.38858180416044,5.313139927483787,active,https://www.ey.com/en_gl/locations/norway#haugesund-haugesund,EY global office-locations JSON directory,source_coordinate,directory_complete,2026-07-18
ey-no-ulsteinvik-ey,EY,EY,official_office,Stålhaugen 11,Ulsteinvik,,Norway,NO,62.334509,5.853494,active,https://www.ey.com/en_gl/locations/norway#ulsteinvik-ey,EY global office-locations JSON directory,source_coordinate,directory_complete,2026-07-18
ey-no-bergen-bergen,EY,EY,official_office,Thormøhlens Gate 53 D,Bergen,,Norway,NO,60.3809626,5.3307033,active,https://www.ey.com/en_gl/locations/norway#bergen-bergen,EY global office-locations JSON directory,source_coordinate,directory_complete,2026-07-18
ey-no-oslo-ey-consulting,EY,EY Consulting,official_office,Stortorvet 7,Oslo,,Norway,NO,59.913055076089535,10.74447804928529,active,https://www.ey.com/en_gl/locations/norway#oslo-ey-consulting,EY global office-locations JSON directory,source_coordinate,directory_complete,2026-07-18
ey-no-oslo-ey-parthenon-oslo,EY,EY-Parthenon,official_office,"Stortorvet 7, Postboks 1156 Sentrum",Oslo,,Norway,NO,59.913055076089535,10.74447804928529,active,https://www.ey.com/en_gl/locations/norway#oslo-ey-parthenon-oslo,EY global office-locations JSON directory,source_coordinate,directory_complete,2026-07-18
ey-no-oslo-ey-assurance,EY,EY Assurance,official_office,Stortorvet 7,Oslo,,Norway,NO,59.913055076089535,10.74447804928529,active,https://www.ey.com/en_gl/locations/norway#oslo-ey-assurance,EY global office-locations JSON directory,source_coordinate,directory_complete,2026-07-18
ey-no-oslo-oslo,EY,EY,official_office,"Stortorvet 7, Postboks 1156 Sentrum",Oslo,,Norway,NO,59.913055076089535,10.74447804928529,active,https://www.ey.com/en_gl/locations/norway#oslo-oslo,EY global office-locations JSON directory,source_coordinate,directory_complete,2026-07-18
ey-no-oslo-ey-tax-law,EY,EY Tax & Law,official_office,Stortorvet 7,Oslo,,Norway,NO,59.913055076089535,10.74447804928529,active,https://www.ey.com/en_gl/locations/norway#oslo-ey-tax-&-law,EY global office-locations JSON directory,source_coordinate,directory_complete,2026-07-18
ey-no-h-nefoss-honefoss,EY,EY,official_office,Arnemannsveien 3,Hønefoss,,Norway,NO,60.16815140000001,10.255861,active,https://www.ey.com/en_gl/locations/norway#honefoss-honefoss,EY global office-locations JSON directory,source_coordinate,directory_complete,2026-07-18
ey-kh-phnom-penh-phnom-penh,EY,EY,official_office,"5th Floor, Emerald Building, #64 Norodom Boulevard corner Street, 178, Sangkat Chey Chumneah, Khan Daun, Penh, 12206 Phnom Penh",Phnom Penh,,Cambodia,KH,11.5649791,104.9258128,active,https://www.ey.com/en_gl/locations/cambodia#phnom-penh-phnom-penh,EY global office-locations JSON directory,source_coordinate,directory_complete,2026-07-18
ey-vg-road-town-road-town,EY,Ernst & Young Ltd.,official_office,"Ritter House, Wickhams Cay 2",Road Town,,British Virgin Islands,VG,18.4286115,-64.6184657,active,https://www.ey.com/en_gl/locations/british-virgin-islands#road-town-road-town,EY global office-locations JSON directory,source_coordinate,directory_complete,2026-07-18
ey-sy-damascus-damascus,EY,EY,official_office,"Rouya Building 4, 8th Gate, 2nd floor, Al-Shafi'i Street, Yafoor Area, Damascus, Syrian Arab Republic",Damascus,,Syria,SY,33.498929,36.1206,active,https://www.ey.com/en_gl/locations/syria#damascus-damascus,EY global office-locations JSON directory,source_coordinate,directory_complete,2026-07-18
ey-bn-kuala-belait-kuala-belait,EY,EY,official_office,"2nd Floor, Room 3C, Bangunan Maju, Lot 308, Jalan Bunga Raya,",Kuala Belait,,Brunei,BN,4.583552,114.19712,active,https://www.ey.com/en_gl/locations/brunei#kuala-belait-kuala-belait,EY global office-locations JSON directory,source_coordinate,directory_complete,2026-07-18
ey-bn-bandar-seri-begawan-bandar-seri-begawan,EY,EY,official_office,"Room 309A, 3rd Floor, Wisma Jaya, Jalan Pemancha,",Bandar Seri Begawan,,Brunei,BN,4.8887119,114.9436219,active,https://www.ey.com/en_gl/locations/brunei#bandar-seri-begawan-bandar-seri-begawan,EY global office-locations JSON directory,source_coordinate,directory_complete,2026-07-18
ey-zw-harare-harare,EY,EY,official_office,"Angwa City, Cnr Julius Nyerere Way, Kwame Nkrumah Avenue, Harare ,",Harare,,Zimbabwe,ZW,-17.8284989,31.0476177,active,https://www.ey.com/en_gl/locations/zimbabwe#harare-harare,EY global office-locations JSON directory,source_coordinate,directory_complete,2026-07-18
ey-zw-bulawayo-bulawayo,EY,EY,official_office,"Derry House, Cnr Fife Street / Sixth Avenue,",Bulawayo,,Zimbabwe,ZW,-20.1525037,28.5850535,active,https://www.ey.com/en_gl/locations/zimbabwe#bulawayo-bulawayo,EY global office-locations JSON directory,source_coordinate,directory_complete,2026-07-18
ey-cr-san-jose-escazu-city,EY,EY,official_office,"San José Epic Corporate Center, 200 metros al oeste del cruce de San Rafael de Escazú",San José,,Costa Rica,CR,9.934061957706103,-84.13067016227562,active,https://www.ey.com/en_gl/locations/costa-rica#san-jose-escazu-city,EY global office-locations JSON directory,source_coordinate,directory_complete,2026-07-18
ey-ma-casablanca-casablanca,EY,EY,official_office,"37, Boulevard Abdellatif Benkaddour",Casablanca,,Morocco,MA,33.5927602,-7.6374913,active,https://www.ey.com/en_gl/locations/morocco#casablanca-casablanca,EY global office-locations JSON directory,source_coordinate,directory_complete,2026-07-18
ey-jo-amman-amman,EY,EY,official_office,"Building No. 300, King Abdullah Street, Amman 11118, Hashemite Kingdom of Jordan",Amman,,Jordan,JO,31.96422132936961,35.843551966197644,active,https://www.ey.com/en_gl/locations/jordan#amman-amman,EY global office-locations JSON directory,source_coordinate,directory_complete,2026-07-18
ey-bw-gaborone-gaborone,EY,EY,official_office,"2nd Floor, Plot 22, Khama Crescent",Gaborone,,Botswana,BW,-24.6552324,25.9119143,active,https://www.ey.com/en_gl/locations/botswana#gaborone-gaborone,EY global office-locations JSON directory,source_coordinate,directory_complete,2026-07-18
ey-dk-s-nderborg-sonderborg,EY,EY,official_office,Nørre Havnegade 43,Sønderborg,,Denmark,DK,54.916496,9.780627,active,https://www.ey.com/en_gl/locations/denmark#sonderborg-sonderborg,EY global office-locations JSON directory,source_coordinate,directory_complete,2026-07-18
ey-dk-odense-odense,EY,EY,official_office,Cortex Park Vest 3,Odense,,Denmark,DK,55.374257,10.423807,active,https://www.ey.com/en_gl/locations/denmark#odense-odense,EY global office-locations JSON directory,source_coordinate,directory_complete,2026-07-18
ey-dk-aarhus-aarhus,EY,EY,official_office,"Værkmestergade 25, Postboks 330",Aarhus,,Denmark,DK,56.162939,10.203921,active,https://www.ey.com/en_gl/locations/denmark#aarhus-aarhus,EY global office-locations JSON directory,source_coordinate,directory_complete,2026-07-18
ey-dk-esbjerg-esbjerg,EY,EY,official_office,Bavnehøjvej 5,Esbjerg,,Denmark,DK,55.463233,8.456161,active,https://www.ey.com/en_gl/locations/denmark#esbjerg-esbjerg,EY global office-locations JSON directory,source_coordinate,directory_complete,2026-07-18
ey-dk-herning-herning,EY,EY,official_office,"Dalgasgade 27, 3",Herning,,Denmark,DK,56.13432,8.97109,active,https://www.ey.com/en_gl/locations/denmark#herning-herning,EY global office-locations JSON directory,source_coordinate,directory_complete,2026-07-18
ey-dk-aalborg-aalborg,EY,EY,official_office,"Østre Havnegade 65, 3. sal",Aalborg,,Denmark,DK,57.048057,9.936083,active,https://www.ey.com/en_gl/locations/denmark#aalborg-aalborg,EY global office-locations JSON directory,source_coordinate,directory_complete,2026-07-18
ey-dk-copenhagen-copenhagen,EY,EY,official_office,"Dirch Passers Alle 36, Postboks 250",Copenhagen,,Denmark,DK,55.68497,12.502403,active,https://www.ey.com/en_gl/locations/denmark#copenhagen-copenhagen,EY global office-locations JSON directory,source_coordinate,directory_complete,2026-07-18
ey-dk-copenhagen-ey-parthenon-copenhagen-2,EY,EY-Parthenon,official_office,"Dirch Passers Alle 36, Postboks 250",Copenhagen,,Denmark,DK,55.68497,12.502403,active,https://www.ey.com/en_gl/locations/denmark#copenhagen-ey-parthenon-copenhagen-2,EY global office-locations JSON directory,source_coordinate,directory_complete,2026-07-18
ey-dk-vejle-vejle,EY,EY,official_office,Innovations Alle 7,Vejle,,Denmark,DK,55.73467,9.5842,active,https://www.ey.com/en_gl/locations/denmark#vejle-vejle,EY global office-locations JSON directory,source_coordinate,directory_complete,2026-07-18
ey-cw-paramaribo-paramaribo,EY,EY,official_office,"Cornelis Jongbawstraat 17, Paramaribo, Suriname",Paramaribo,,Curacao,CW,5.829708,-55.145283,active,https://www.ey.com/en_gl/locations/curacao#paramaribo-paramaribo,EY global office-locations JSON directory,source_coordinate,directory_complete,2026-07-18
ey-cw-curacao-curacao,EY,EY,official_office,"Zeelandia Office Park, Kaya W.F.G. (Jombi) Mensing 16, P.O. Box 3626, Willemstad",Curaçao,,Curacao,CW,12.1150464,-68.9024271,active,https://www.ey.com/en_gl/locations/curacao#curacao-curacao,EY global office-locations JSON directory,source_coordinate,directory_complete,2026-07-18
ey-pa-panama-panama-pacifico,EY,EY,official_office,"Panamá Pacífico, International Business Park, Edificio 3855, Piso 2, Oficina 210",Panama,,Panama,PA,8.926379,-79.593495,active,https://www.ey.com/en_gl/locations/panama#panama-panama-pacifico,EY global office-locations JSON directory,source_coordinate,directory_complete,2026-07-18
ey-pa-panama-panama,EY,EY,official_office,"Costa del Este, Avenida Centenario, PH Dream Plaza, Piso 9",Panama,,Panama,PA,9.0166388,-79.4708611,active,https://www.ey.com/en_gl/locations/panama#panama-panama,EY global office-locations JSON directory,source_coordinate,directory_complete,2026-07-18
ey-gg-st-peter-port-st-peter-port,EY,EY,official_office,"Royal Chambers, St. Julians Avenue,",St. Peter Port,,Guernsey,GG,49.459102,-2.5356521,active,https://www.ey.com/en_gl/locations/guernsey#st-peter-port-st-peter-port,EY global office-locations JSON directory,source_coordinate,directory_complete,2026-07-18
ey-sg-singapore-ey-parthenon-singapore,EY,EY-Parthenon Singapore,official_office,"Level 18 North Tower, One Raffles Quay",Singapore,,Singapore,SG,1.281564,103.851895,active,https://www.ey.com/en_gl/locations/singapore#singapore-ey-parthenon-singapore,EY global office-locations JSON directory,source_coordinate,directory_complete,2026-07-18
ey-sg-singapore-level-18-north-tower,EY,EY,official_office,"Level 18 North Tower, One Raffles Quay",Singapore,,Singapore,SG,1.2812,103.8519,active,https://www.ey.com/en_gl/locations/singapore#singapore-level-18-north-tower,EY global office-locations JSON directory,source_coordinate,directory_complete,2026-07-18
ey-sg-singapore-singapore-wavespace,EY,EY wavespace Singapore,official_office,"One Raffles Quay, North Tower Level 18",Singapore,,Singapore,SG,1.2814101525424555,103.85191726733714,active,https://www.ey.com/en_gl/locations/singapore#singapore-singapore-wavespace,EY global office-locations JSON directory,source_coordinate,directory_complete,2026-07-18
ey-tz-dar-es-salaam-dar-es-salaam,EY,EY,official_office,"Tanhouse Tower (4th Floor), Plot No. 34/1- Ursino South, New Bagamoyo Road, P.O.Box 2475",Dar es Salaam,,Tanzania,TZ,-6.7871174,39.2823364,active,https://www.ey.com/en_gl/locations/tanzania#dar-es-salaam-dar-es-salaam,EY global office-locations JSON directory,source_coordinate,directory_complete,2026-07-18
ey-kw-kuwait-city-safat,EY,EY and EY Parthenon,official_office,"Burj Alshaya, 16th & 17th Floor, Al Soor Street, Mirqab, Safat 13001, State of Kuwait",Kuwait City,,Kuwait,KW,29.362502288838744,47.980534937228626,active,https://www.ey.com/en_gl/locations/kuwait#kuwait-city-safat,EY global office-locations JSON directory,source_coordinate,directory_complete,2026-07-18
ey-om-muscat-landmark-building-opposite-al-amine-mosque,EY,EY and EY Parthenon,official_office,"Ruwi 112, Landmark Building, 5th Floor, Opposite Al Ameen Mosque, Bowshar, Muscat, Sultanate of Oman",Muscat,,Oman,OM,23.578890044232963,58.4114581253266,active,https://www.ey.com/en_gl/locations/oman#muscat-landmark-building-opposite-al-amine-mosque,EY global office-locations JSON directory,source_coordinate,directory_complete,2026-07-18
ey-es-zaragoza-zaragoza,EY,EY Zaragoza,official_office,"Avda. Juan Pablo II, 35 – 5ª planta / Torre Aragonia",Zaragoza,,Spain,ES,41.640999726180695,-0.9098066986447882,active,https://www.ey.com/en_gl/locations/spain#zaragoza-zaragoza,EY global office-locations JSON directory,source_coordinate,directory_complete,2026-07-18
ey-es-valencia-valencia,EY,EY,official_office,"Menorca, 19 Edificio Aqua. PL 3",Valencia,,Spain,ES,39.4564876,-0.3462127,active,https://www.ey.com/en_gl/locations/spain#valencia-valencia,EY global office-locations JSON directory,source_coordinate,directory_complete,2026-07-18
ey-es-madrid-madrid,EY,Madrid,official_office,"Calle de Raimundo Fernández Villaverde, 65",Madrid,,Spain,ES,40.4466622,-3.6964745,active,https://www.ey.com/en_gl/locations/spain#madrid-madrid,EY global office-locations JSON directory,source_coordinate,directory_complete,2026-07-18
ey-es-madrid-plaza-manuel-gomez-moreno-2,EY,EY,official_office,"Plaza Manuel Gómez-Moreno 2, Edificio Alfredo Mahou",Madrid,,Spain,ES,40.4466501,-3.6944596,active,https://www.ey.com/en_gl/locations/spain#madrid-plaza-manuel-gomez-moreno-2,EY global office-locations JSON directory,source_coordinate,directory_complete,2026-07-18
ey-es-madrid-ey-parthenon-madrid,EY,EY-Parthenon Madrid,official_office,"Calle de Raimundo Fernández Villaverde 65 Torre Azca,",Madrid,,Spain,ES,40.446744,-3.69406,active,https://www.ey.com/en_gl/locations/spain#madrid-ey-parthenon-madrid,EY global office-locations JSON directory,source_coordinate,directory_complete,2026-07-18
ey-es-madrid-madrid-wavespace,EY,EY wavespace Madrid,official_office,"Calle Raimundo Fernandez Villaverde 65 floor 15,",Madrid,,Spain,ES,40.4466622,-3.6964745,active,https://www.ey.com/en_gl/locations/spain#madrid-madrid-wavespace,EY global office-locations JSON directory,source_coordinate,directory_complete,2026-07-18
ey-es-madrid-calle-de-raimundo-fernandez-villaverde-65,EY,EY,official_office,Calle de Raimundo Fernández Villaverde 65 - Torre Azca,Madrid,,Spain,ES,40.4468,-3.6945,active,https://www.ey.com/en_gl/locations/spain#madrid-calle-de-raimundo-fernandez-villaverde-65,EY global office-locations JSON directory,source_coordinate,directory_complete,2026-07-18
ey-es-valladolid-valladolid,EY,EY Valladolid,official_office,"Santiago, 9 – Pl 1 4BS",Valladolid,,Spain,ES,41.65063494791193,-4.728479239964855,active,https://www.ey.com/en_gl/locations/spain#valladolid-valladolid,EY global office-locations JSON directory,source_coordinate,directory_complete,2026-07-18
ey-es-las-palmas-de-gran-canaria-las-palmas-de-gran-canaria,EY,EY,official_office,"Avda. Alcalde Ramírez Bethencourt 6, Edificio Atlántico,",Las Palmas de Gran Canaria,,Spain,ES,28.111500034067213,-15.416407361755615,active,https://www.ey.com/en_gl/locations/spain#las-palmas-de-gran-canaria-las-palmas-de-gran-canaria,EY global office-locations JSON directory,source_coordinate,directory_complete,2026-07-18
ey-es-la-coruna-la-coruna,EY,EY,official_office,"Cantón Pequeño 13-14, Planta 6ºA y 7ºB, Edificio Ocaso",La Coruña,,Spain,ES,43.36737039408135,-8.404173165605874,active,https://www.ey.com/en_gl/locations/spain#la-coruna-la-coruna,EY global office-locations JSON directory,source_coordinate,directory_complete,2026-07-18
ey-es-malaga-malaga,EY,EY Málaga,official_office,"Paseo de la Farola 5, Edificio Velería",Málaga,,Spain,ES,36.71884471921851,-4.411939530488786,active,https://www.ey.com/en_gl/locations/spain#malaga-malaga,EY global office-locations JSON directory,source_coordinate,directory_complete,2026-07-18
ey-es-malaga-calle-severo-ochoa-21,EY,EY Málaga Met,official_office,"Calle Severo Ochoa 21, Edificio I + D 6 Norte",Málaga,,Spain,ES,36.734311258914325,-4.557738626768491,active,https://www.ey.com/en_gl/locations/spain#malaga-calle-severo-ochoa-21,EY global office-locations JSON directory,source_coordinate,directory_complete,2026-07-18
ey-es-bilbao-bilbao,EY,EY,official_office,Torre Iberdrola. Plaza Euskadi 5 – Pl 4,Bilbao,,Spain,ES,43.268177811953066,-2.9385287754199703,active,https://www.ey.com/en_gl/locations/spain#bilbao-bilbao,EY global office-locations JSON directory,source_coordinate,directory_complete,2026-07-18
ey-es-san-sebastian-vigo,EY,EY San Sebastian,official_office,"Avda. de la Libertad, 18 Pl 1",San Sebastián,,Spain,ES,43.320072842333175,-1.9814582222072452,active,https://www.ey.com/en_gl/locations/spain#san-sebastian-vigo,EY global office-locations JSON directory,source_coordinate,directory_complete,2026-07-18
ey-es-palma-de-mallorca-palma-de-mallorca,EY,EY Mallorca,official_office,"Cami del Reis 308, Torre B, 2ª planta, Edificio Mapfre – Urb. Can Granada",Palma de Mallorca,,Spain,ES,39.59741474315236,2.6457439324790495,active,https://www.ey.com/en_gl/locations/spain#palma-de-mallorca-palma-de-mallorca,EY global office-locations JSON directory,source_coordinate,directory_complete,2026-07-18
ey-es-sevilla-sevilla,EY,EY Sevilla,official_office,"Torre Sevilla - Calle Gonzalo Jiménez de Quesada, 2 - 8ª planta.",Sevilla,,Spain,ES,37.39135098884845,-6.010242840394298,active,https://www.ey.com/en_gl/locations/spain#sevilla-sevilla,EY global office-locations JSON directory,source_coordinate,directory_complete,2026-07-18
ey-gb-northern-ireland-derry,EY,EY,official_office,"1st Floor, Ebrington Plaza (Building 2), Derry/Londonderry",Northern Ireland,,United Kingdom,GBR,0,0,active,https://www.ey.com/en_gl/locations/united-kingdom#northern-ireland-derry,EY global office-locations JSON directory,source_coordinate,directory_complete,2026-07-18
ey-es-barcelona-barcelona,EY,EY,official_office,"Adva. de Sarria, 102-106. Torres Sarriá A",Barcelona,,Spain,ES,41.3921916,2.1342606,active,https://www.ey.com/en_gl/locations/spain#barcelona-barcelona,EY global office-locations JSON directory,source_coordinate,directory_complete,2026-07-18
ey-es-vigo-vigo,EY,EY Vigo,official_office,"Areal, 18 Ofic., 10-13",Vigo,,Spain,ES,42.23926675067802,-8.719061933163205,active,https://www.ey.com/en_gl/locations/spain#vigo-vigo,EY global office-locations JSON directory,source_coordinate,directory_complete,2026-07-18
ey-es-pamplona-pamplona,EY,EY Pamplona,official_office,"Avda. Pío XII, 22",Pamplona,,Spain,ES,42.80810600522102,-1.6599636800291397,active,https://www.ey.com/en_gl/locations/spain#pamplona-pamplona,EY global office-locations JSON directory,source_coordinate,directory_complete,2026-07-18
ey-ro-bucharest-bucharest,EY,EY,official_office,"Bucharest Tower Center, 22nd Floor 15-17 Ion Mihalache Blvd. Sector 1,",Bucharest,,Romania,RO,44.454612,26.081385,active,https://www.ey.com/en_gl/locations/romania#bucharest-bucharest,EY global office-locations JSON directory,source_coordinate,directory_complete,2026-07-18
ey-ro-iasi-iasi,EY,EY Iasi,official_office,"Address: United Business Center 3, Building 2, 1st Floor, 7D-7E Palas St.,",Iasi,,Romania,RO,47.156494,27.589739,active,https://www.ey.com/en_gl/locations/romania#iasi-iasi,EY global office-locations JSON directory,source_coordinate,directory_complete,2026-07-18
ey-ro-cluj-napoca-cluj-napoca,EY,EY,official_office,"The Office Business Complex, 77 “21 Decembrie 1989” Blvd, Building B, 1st Floor // VIVIDO Business Center, No. 16, Alexandru Vaida Voievod, 2nd floor // ,",Cluj-Napoca,,Romania,RO,46.776212,23.603621,active,https://www.ey.com/en_gl/locations/romania#cluj-napoca-cluj-napoca,EY global office-locations JSON directory,source_coordinate,directory_complete,2026-07-18
ey-ro-timisoara-timisoara,EY,EY,official_office,"City Business Center, Building E, 2nd floor, 10 Coriolan Brediceanu St Timis County,",Timisoara,,Romania,RO,45.757285,21.221347,active,https://www.ey.com/en_gl/locations/romania#timisoara-timisoara,EY global office-locations JSON directory,source_coordinate,directory_complete,2026-07-18
ey-je-st-helier-st-helier,EY,EY,official_office,"Liberation House, Castle Street,",St. Helier,,Jersey,JE,49.1838105,-2.1115187,active,https://www.ey.com/en_gl/locations/jersey#st-helier-st-helier,EY global office-locations JSON directory,source_coordinate,directory_complete,2026-07-18
ey-ke-nairobi-nairobi,EY,EY,official_office,"Kenya Re Towers, Off Ragati Road, P.O. Box 44286,",Nairobi,,Kenya,KE,-1.2964813,36.814122,active,https://www.ey.com/en_gl/locations/kenya#nairobi-nairobi,EY global office-locations JSON directory,source_coordinate,directory_complete,2026-07-18
ey-mt-msida-msida,EY,EY,official_office,"Regional Business Center, Achille Ferris Street,",Msida,,Malta,MT,35.9001912,14.4856,active,https://www.ey.com/en_gl/locations/malta#msida-msida,EY global office-locations JSON directory,source_coordinate,directory_complete,2026-07-18
ey-bg-sofia-sofia,EY,EY,official_office,"Polygraphia Office Center floor 4, Tsarigradsko shose blvd 47A,",Sofia,,Bulgaria,BG,42.6865855,23.3440051,active,https://www.ey.com/en_gl/locations/bulgaria#sofia-sofia,EY global office-locations JSON directory,source_coordinate,directory_complete,2026-07-18
ey-il-jerusalem-jerusalem,EY,EY,official_office,"8 Hartom, Har Hotzvim,",Jerusalem,,Israel,IL,31.8025755,35.2132238,active,https://www.ey.com/en_gl/locations/israel#jerusalem-jerusalem,EY global office-locations JSON directory,source_coordinate,directory_complete,2026-07-18
ey-il-haifa-haifa,EY,EY,official_office,"Brosh Building, 2 Pal-Yam av.,",Haifa,,Israel,IL,32.7940463,34.989571,active,https://www.ey.com/en_gl/locations/israel#haifa-haifa,EY global office-locations JSON directory,source_coordinate,directory_complete,2026-07-18
ey-il-tel-aviv-tel-aviv-wavespace,EY,EY wavespace Tel Aviv,official_office,"144 Menachem Begin st,",Tel Aviv,,Israel,IL,32.09331,34.832246,active,https://www.ey.com/en_gl/locations/israel#tel-aviv-tel-aviv-wavespace,EY global office-locations JSON directory,source_coordinate,directory_complete,2026-07-18
ey-il-tel-aviv-ey-parthenon-tel-aviv,EY,EY-Parthenon Tel Aviv,official_office,"3 Aminadav St.,",Tel Aviv,,Israel,IL,32.065426,34.792865,active,https://www.ey.com/en_gl/locations/israel#tel-aviv-ey-parthenon-tel-aviv,EY global office-locations JSON directory,source_coordinate,directory_complete,2026-07-18
ey-il-tel-aviv-tel-aviv,EY,EY,official_office,"144 Menachem Begin Road, Building A,",Tel Aviv,,Israel,IL,32.0768528,34.792631,active,https://www.ey.com/en_gl/locations/israel#tel-aviv-tel-aviv,EY global office-locations JSON directory,source_coordinate,directory_complete,2026-07-18
ey-at-linz-linz,EY,EY,official_office,"Blumauerstraße 46, Blumau Tower",Linz,,Austria,AT,48.2973241,14.3021305,active,https://www.ey.com/en_gl/locations/austria#linz-linz,EY global office-locations JSON directory,source_coordinate,directory_complete,2026-07-18
ey-at-graz-graz,EY,EY,official_office,Gadollaplatz 1,Graz,,Austria,AT,47.05681991973735,15.44578156359905,active,https://www.ey.com/en_gl/locations/austria#graz-graz,EY global office-locations JSON directory,source_coordinate,directory_complete,2026-07-18
ey-at-vienna-vienna,EY,EY,official_office,"Wagramer Strasse 19, IZD Tower",Vienna,,Austria,AT,48.2348145,16.4206471,active,https://www.ey.com/en_gl/locations/austria#vienna-vienna,EY global office-locations JSON directory,source_coordinate,directory_complete,2026-07-18
ey-at-salzburg-salzburg,EY,EY,official_office,Sterneckstrasse 33,Salzburg,,Austria,AT,47.8093585,13.0568291,active,https://www.ey.com/en_gl/locations/austria#salzburg-salzburg,EY global office-locations JSON directory,source_coordinate,directory_complete,2026-07-18
ey-at-klagenfurt-klagenfurt,EY,EY,official_office,Eiskellerstrasse 5,Klagenfurt,,Austria,AT,46.6412643,14.2903609,active,https://www.ey.com/en_gl/locations/austria#klagenfurt-klagenfurt,EY global office-locations JSON directory,source_coordinate,directory_complete,2026-07-18
ey-li-vaduz-vaduz,EY,EY,official_office,"Am Schrägen Weg 19,",Vaduz,,Liechtenstein,LI,47.13822213700656,9.51764070773029,active,https://www.ey.com/en_gl/locations/liechtenstein#vaduz-vaduz,EY global office-locations JSON directory,source_coordinate,directory_complete,2026-07-18
ey-bo-santa-cruz-santa-cruz,EY,EY,official_office,"Av. Cristo Redentor 4to Anillo, Edificio Torre Empresarial MSC, Piso13, Oficina 13-B",Santa Cruz,,Bolivia,BO,-17.748783624626753,-63.17525208765234,active,https://www.ey.com/en_gl/locations/bolivia#santa-cruz-santa-cruz,EY global office-locations JSON directory,source_coordinate,directory_complete,2026-07-18
ey-bo-la-paz-la-paz,EY,EY,official_office,"Zona Sopocachi, Av. 20 de Octubre # 2665, Edificio Torre Azul, Piso 16",La Paz,,Bolivia,BO,-16.5132121,-68.1235099,active,https://www.ey.com/en_gl/locations/bolivia#la-paz-la-paz,EY global office-locations JSON directory,source_coordinate,directory_complete,2026-07-18
ey-co-barranquilla-barranquilla,EY,EY,official_office,"Cll 77B No. 59-61 - Oficina 311, Centro Empresarial de Las Americas II",Barranquilla,,Colombia,CO,11.0079159,-74.8026795,active,https://www.ey.com/en_gl/locations/colombia#barranquilla-barranquilla,EY global office-locations JSON directory,source_coordinate,directory_complete,2026-07-18
ey-co-medellin-medellin,EY,EY,official_office,"Centro Empresarial Milla de Oro, Carrera 43 A # 3 Sur - 130, Piso 14",Medellin,,Colombia,CO,6.2007734,-75.5727742,active,https://www.ey.com/en_gl/locations/colombia#medellin-medellin,EY global office-locations JSON directory,source_coordinate,directory_complete,2026-07-18
ey-co-bogota-bogota,EY,EY,official_office,Connecta 80 - Carrera 72 No. 81B – 13 - Piso 15 y 16,Bogotá,,Colombia,CO,4.697321451322216,-74.0871237919444,active,https://www.ey.com/en_gl/locations/colombia#bogota-bogota,EY global office-locations JSON directory,source_coordinate,directory_complete,2026-07-18
ey-co-cali-cali,EY,EY,official_office,"Avenida 4 Norte No. 6N-61, Oficina 502, Edificio Siglo XXI",Cali,,Colombia,CO,3.454381,-76.537748,active,https://www.ey.com/en_gl/locations/colombia#cali-cali,EY global office-locations JSON directory,source_coordinate,directory_complete,2026-07-18
ey-ge-tbilisi-tbilisi,EY,EY,official_office,Kote Abkhazi Street 44,Tbilisi,,Georgia,GE,41.690146,44.80876,active,https://www.ey.com/en_gl/locations/georgia#tbilisi-tbilisi,EY global office-locations JSON directory,source_coordinate,directory_complete,2026-07-18
ey-it-perugia-perugia,EY,EY,official_office,"Via Bartolo 10,",Perugia,,Italy,IT,43.1128933,12.3893943,active,https://www.ey.com/en_gl/locations/italy#perugia-perugia,EY global office-locations JSON directory,source_coordinate,directory_complete,2026-07-18
ey-it-perugia-ey,EY,EY,official_office,"Via Bartolo, 10,",Perugia,,Italy,IT,43.11302788883583,12.389373383384312,active,https://www.ey.com/en_gl/locations/italy#perugia-ey,EY global office-locations JSON directory,source_coordinate,directory_complete,2026-07-18
ey-it-flero-ey,EY,EY,official_office,"Via Quinzano, 23A,",Flero,,Italy,IT,45.48849245555549,10.153082689012203,active,https://www.ey.com/en_gl/locations/italy#flero-ey,EY global office-locations JSON directory,source_coordinate,directory_complete,2026-07-18
ey-it-ancona-ancona,EY,EY,official_office,"Via Thomas Edison 4/6,",Ancona,,Italy,IT,43.5311158,13.5133229,active,https://www.ey.com/en_gl/locations/italy#ancona-ancona,EY global office-locations JSON directory,source_coordinate,directory_complete,2026-07-18
ey-it-brescia-corso-magenta-29,EY,EY,official_office,"Via Rodolfo Vantini, 38",Brescia,,Italy,IT,45.5405419,10.2065523,active,https://www.ey.com/en_gl/locations/italy#brescia-corso-magenta-29,EY global office-locations JSON directory,source_coordinate,directory_complete,2026-07-18
ey-it-bari-ey-1,EY,EY,official_office,"Via Guglielmo Oberdan, 40,",Bari,,Italy,IT,41.117667359791135,16.881823767965457,active,https://www.ey.com/en_gl/locations/italy#bari-ey-1,EY global office-locations JSON directory,source_coordinate,directory_complete,2026-07-18
ey-it-bari-ey,EY,EY,official_office,"Corso Cavour, 24,",Bari,,Italy,IT,41.12312823557197,16.87282521607954,active,https://www.ey.com/en_gl/locations/italy#bari-ey,EY global office-locations JSON directory,source_coordinate,directory_complete,2026-07-18
ey-it-genova-genova,EY,EY,official_office,"Via XX Settembre, 42,",Genova,,Italy,IT,44.4067353,8.9356305,active,https://www.ey.com/en_gl/locations/italy#genova-genova,EY global office-locations JSON directory,source_coordinate,directory_complete,2026-07-18
ey-it-torino-torino,EY,EY,official_office,"via Giuseppe Giacosa, 38",Torino,,Italy,IT,45.054159921391815,7.683484025384828,active,https://www.ey.com/en_gl/locations/italy#torino-torino,EY global office-locations JSON directory,source_coordinate,directory_complete,2026-07-18
ey-it-bergamo-bergamo,EY,EY,official_office,"Viale Papa Giovanni XXIII, 48,",Bergamo,,Italy,IT,45.6931991,9.6715637,active,https://www.ey.com/en_gl/locations/italy#bergamo-bergamo,EY global office-locations JSON directory,source_coordinate,directory_complete,2026-07-18
ey-it-napoli-napoli,EY,EY,official_office,"Via dei Mille, 40,",Napoli,,Italy,IT,40.8369233,14.2387387,active,https://www.ey.com/en_gl/locations/italy#napoli-napoli,EY global office-locations JSON directory,source_coordinate,directory_complete,2026-07-18
ey-it-monza-ey,EY,EY,official_office,"Via Enrico Cernuschi, 6,",Monza,,Italy,IT,45.58233274105356,9.278160696982589,active,https://www.ey.com/en_gl/locations/italy#monza-ey,EY global office-locations JSON directory,source_coordinate,directory_complete,2026-07-18
ey-it-roma-rm-via-po-31,EY,EY wavespace Rome,official_office,"RM - Via Lombardia, 31,",Roma,,Italy,IT,41.907919,12.487768,active,https://www.ey.com/en_gl/locations/italy#roma-rm-via-po-31,EY global office-locations JSON directory,source_coordinate,directory_complete,2026-07-18
ey-it-trieste-ey,EY,EY,official_office,"Località Padriciano, 99,",Trieste,,Italy,IT,45.657596264151906,13.827715676727077,active,https://www.ey.com/en_gl/locations/italy#trieste-ey,EY global office-locations JSON directory,source_coordinate,directory_complete,2026-07-18
ey-it-trieste-trieste,EY,EY,official_office,"Largo D.F. Bonifacio, 1,",Trieste,,Italy,IT,45.65141,13.77796,active,https://www.ey.com/en_gl/locations/italy#trieste-trieste,EY global office-locations JSON directory,source_coordinate,directory_complete,2026-07-18
ey-it-treviso-treviso,EY,EY,official_office,"Viale Appiani, 20/B,",Treviso,,Italy,IT,45.6653144,12.2306516,active,https://www.ey.com/en_gl/locations/italy#treviso-treviso,EY global office-locations JSON directory,source_coordinate,directory_complete,2026-07-18
ey-it-cagliari-ey,EY,EY,official_office,"S.S 195 KM 2300, Località Sa Illetta,",Cagliari,,Italy,IT,39.227749468470115,9.071855481681938,active,https://www.ey.com/en_gl/locations/italy#cagliari-ey,EY global office-locations JSON directory,source_coordinate,directory_complete,2026-07-18
ey-it-firenze-piazza-della-liberta-11,EY,EY,official_office,"Via Tartini, 11 – Firenze (c/o Manifattura Tabacchi)",Firenze,,Italy,IT,43.787108,11.222512,active,https://www.ey.com/en_gl/locations/italy#firenze-piazza-della-liberta-11,EY global office-locations JSON directory,source_coordinate,directory_complete,2026-07-18
ey-it-reggio-emilia-ey,EY,EY,official_office,"Piazzale Europa, 2/d,",Reggio Emilia,,Italy,IT,44.69925666726119,10.64669803916122,active,https://www.ey.com/en_gl/locations/italy#reggio-emilia-ey,EY global office-locations JSON directory,source_coordinate,directory_complete,2026-07-18
ey-it-verona-verona,EY,EY,official_office,"Via Isonzo, 11,",Verona,,Italy,IT,45.4440462,10.9895191,active,https://www.ey.com/en_gl/locations/italy#verona-verona,EY global office-locations JSON directory,source_coordinate,directory_complete,2026-07-18
ey-it-milano-ey-parthenon-milan,EY,EY-Parthenon Milan,official_office,"Via Meravigli, 12,",Milano,,Italy,IT,45.466176,9.182926,active,https://www.ey.com/en_gl/locations/italy#milano-ey-parthenon-milan,EY global office-locations JSON directory,source_coordinate,directory_complete,2026-07-18
ey-it-milano-milano-wavespace,EY,EY wavespace Milan,official_office,"Via Manfredo Camperio, 3,",Milano,,Italy,IT,45.46633,9.183357,active,https://www.ey.com/en_gl/locations/italy#milano-milano-wavespace,EY global office-locations JSON directory,source_coordinate,directory_complete,2026-07-18
ey-it-milano-milano,EY,EY,official_office,"Via Meravigli, 12/14,",Milano,,Italy,IT,45.4661119,9.18288789,active,https://www.ey.com/en_gl/locations/italy#milano-milano,EY global office-locations JSON directory,source_coordinate,directory_complete,2026-07-18
ey-it-padova-ey,EY,EY,official_office,"Piazza Aldo Moro, 10, presso Torre NET CENTER – Interno 17,",Padova,,Italy,IT,45.416006881722154,11.919450513565955,active,https://www.ey.com/en_gl/locations/italy#padova-ey,EY global office-locations JSON directory,source_coordinate,directory_complete,2026-07-18
ey-it-bologna-ey,EY,EY,official_office,"Via d'Azeglio, 34,",Bologna,,Italy,IT,44.49191852032127,11.341990681596968,active,https://www.ey.com/en_gl/locations/italy#bologna-ey,EY global office-locations JSON directory,source_coordinate,directory_complete,2026-07-18
ey-gh-accra-accra,EY,EY,official_office,"60 Rangoon Lane, Cantonments City",Accra,,Ghana,GH,5.574241130384726,-0.18152380022125691,active,https://www.ey.com/en_gl/locations/ghana#accra-accra,EY global office-locations JSON directory,source_coordinate,directory_complete,2026-07-18
ey-th-bangkok-bangkok,EY,EY,official_office,"1875 One Bangkok Tower 3, Level 34 - 37, Rama 4 Road, Lumphini, Pathumwan",Bangkok,,Thailand,TH,13.72663783493715,100.54706422349783,active,https://www.ey.com/en_gl/locations/thailand#bangkok-bangkok,EY global office-locations JSON directory,source_coordinate,directory_complete,2026-07-18
ey-bd-dhaka-dhaka,EY,EY,official_office,"Ernst & Young Advisory Services Bangladesh Ltd, Navana Pristine Pavilion, 128, Gulshan Avenue, Level # 9, Block-CEN (H)-2, Gulshan-2",Dhaka,,Bangladesh,BD,23.79036,90.41638,active,https://www.ey.com/en_gl/locations/bangladesh#dhaka-dhaka,EY global office-locations JSON directory,source_coordinate,directory_complete,2026-07-18
ey-zm-kitwe-kitwe,EY,EY,official_office,"P.O. Box 21375, Kitwe, Zambia",Kitwe,,Zambia,ZM,-12.8231947,28.2175744,active,https://www.ey.com/en_gl/locations/zambia#kitwe-kitwe,EY global office-locations JSON directory,source_coordinate,directory_complete,2026-07-18
ey-zm-lusaka-lusaka,EY,EY,official_office,"Plot No. 354437, Alick Nkhata Road, PO Box 35483",Lusaka,,Zambia,ZM,-15.408735,28.3254264,active,https://www.ey.com/en_gl/locations/zambia#lusaka-lusaka,EY global office-locations JSON directory,source_coordinate,directory_complete,2026-07-18
ey-ps-ramallah-ramallah,EY,EY,official_office,"PADICO House Building, 7th Floor, Al-Masyoun, Ramallah, Palestine",Ramallah,,Palestinian Authority,PS,31.890962852644407,35.19966693804648,active,https://www.ey.com/en_gl/locations/palestinian-authority#ramallah-ramallah,EY global office-locations JSON directory,source_coordinate,directory_complete,2026-07-18
ey-ch-aarau-aarau,EY,EY Aarau,official_office,Rain 41,Aarau,,Switzerland,CH,47.3898312,8.04358,active,https://www.ey.com/en_gl/locations/switzerland#aarau-aarau,EY global office-locations JSON directory,source_coordinate,directory_complete,2026-07-18
ey-ch-st-gallen-st-gallen,EY,EY St. Gallen,official_office,St. Leonard-Strasse 76,St. Gallen,,Switzerland,CH,47.4210376,9.3650665,active,https://www.ey.com/en_gl/locations/switzerland#st-gallen-st-gallen,EY global office-locations JSON directory,source_coordinate,directory_complete,2026-07-18
ey-ch-basel-basel,EY,EY Basel,official_office,Aeschengraben 27,Basel,,Switzerland,CH,47.549212268691846,7.592603353927216,active,https://www.ey.com/en_gl/locations/switzerland#basel-basel,EY global office-locations JSON directory,source_coordinate,directory_complete,2026-07-18
ey-ch-basel-ey-wavespace-basel,EY,EY wavespace Basel,official_office,Aeschengraben 27,Basel,,Switzerland,CH,47.549212268691846,7.592603353927216,active,https://www.ey.com/en_gl/locations/switzerland#basel-ey-wavespace-basel,EY global office-locations JSON directory,source_coordinate,directory_complete,2026-07-18
ey-ch-lugano-lugano,EY,EY Lugano,official_office,Corso Elvezia 9,Lugano,,Switzerland,CH,46.0084864,8.9568094,active,https://www.ey.com/en_gl/locations/switzerland#lugano-lugano,EY global office-locations JSON directory,source_coordinate,directory_complete,2026-07-18
ey-ch-zug-zug,EY,EY Zug,official_office,Gotthardstrasse 26,Zug,,Switzerland,CH,47.1729342,8.5120272,active,https://www.ey.com/en_gl/locations/switzerland#zug-zug,EY global office-locations JSON directory,source_coordinate,directory_complete,2026-07-18
ey-ch-zurich-maagplatz-1,EY,EY Zurich,official_office,Maagpl. 1,Zurich,,Switzerland,CH,47.3859193,8.5160434,active,https://www.ey.com/en_gl/locations/switzerland#zurich-maagplatz-1,EY global office-locations JSON directory,source_coordinate,directory_complete,2026-07-18
ey-ch-zurich-ey-parthenon-zurich,EY,EY-Parthenon Zurich,official_office,Maagpl. 1,Zurich,,Switzerland,CH,47.386198,8.516228,active,https://www.ey.com/en_gl/locations/switzerland#zurich-ey-parthenon-zurich,EY global office-locations JSON directory,source_coordinate,directory_complete,2026-07-18
ey-ch-lucerne-lucerne,EY,EY Lucerne,official_office,Bahnhofstrasse 7,Lucerne,,Switzerland,CH,47.050663,8.306941,active,https://www.ey.com/en_gl/locations/switzerland#lucerne-lucerne,EY global office-locations JSON directory,source_coordinate,directory_complete,2026-07-18
ey-ch-geneva-lancy-petit-lancy-geneva,EY,EY Geneva,official_office,Place de Pont-Rouge 1,"Geneva, Lancy",,Switzerland,CH,46.187167,6.124667,active,https://www.ey.com/en_gl/locations/switzerland#grand-lancy-geneva-petit-lancy-geneva,EY global office-locations JSON directory,source_coordinate,directory_complete,2026-07-18
ey-ch-lausanne-lausanne,EY,EY Lausanne,official_office,Avenue de Malley 10,Lausanne-Malley,,Switzerland,CH,46.52744651699388,6.599571384497064,active,https://www.ey.com/en_gl/locations/switzerland#lausanne-lausanne,EY global office-locations JSON directory,source_coordinate,directory_complete,2026-07-18
ey-ch-berne-berne,EY,EY Berne,official_office,Schanzenstrasse 4A,Berne,,Switzerland,CH,46.948235,7.437445,active,https://www.ey.com/en_gl/locations/switzerland#berne-berne,EY global office-locations JSON directory,source_coordinate,directory_complete,2026-07-18
ey-rw-kigali-kigali,EY,EY,official_office,"M-Peace Plaza, Executive Wing 6th Floor, Avenue de la Pai, P.O Box 3638",Kigali,,Rwanda,RW,-1.9471,30.0595781,active,https://www.ey.com/en_gl/locations/rwanda#kigali-kigali,EY global office-locations JSON directory,source_coordinate,directory_complete,2026-07-18
ey-jm-kingston-kingston,EY,EY,official_office,8 Olivier Road,Kingston,,Jamaica,JM,18.0492909,-76.7926628,active,https://www.ey.com/en_gl/locations/jamaica#kingston-kingston,EY global office-locations JSON directory,source_coordinate,directory_complete,2026-07-18
ey-ly-tripoli-ey,EY,EY and EY Parthenon,official_office,"Abu Al-Asswad Al-do’ali Street, Behind Al-Masarra Clinic, Al-dol Street",Tripoli,,Libya,LY,32.88790098529203,13.191335486062247,active,https://www.ey.com/en_gl/locations/libya#eytripoli-ey,EY global office-locations JSON directory,source_coordinate,directory_complete,2026-07-18
ey-my-labuan-labuan,EY,EY,official_office,"Lot 1, 1st Floor, Wisma Siamloh, Jalan Kemajuan",Labuan,,Malaysia,MY,5.279597,115.242375,active,https://www.ey.com/en_gl/locations/malaysia#labuan-labuan,EY global office-locations JSON directory,source_coordinate,directory_complete,2026-07-18
ey-my-kuala-terengganu-kuala-terengganu,EY,EY,official_office,"Tingkat 9, Menara PERMINT, Jalan Sultan Ismail",Kuala Terengganu,,Malaysia,MY,5.329927,103.1367949,active,https://www.ey.com/en_gl/locations/malaysia#kuala-terengganu-kuala-terengganu,EY global office-locations JSON directory,source_coordinate,directory_complete,2026-07-18
ey-my-kuantan-kuantan,EY,EY,official_office,"Unit 10 D-J, Level 10, Menara Zenith, Jalan Putra Square 6 Pahang Darul Makmur",Kuantan,,Malaysia,MY,4.589726,101.0848039,active,https://www.ey.com/en_gl/locations/malaysia#kuantan-kuantan,EY global office-locations JSON directory,source_coordinate,directory_complete,2026-07-18
ey-my-kota-kinabalu-kota-kinabalu,EY,EY,official_office,"L12.01, 12th Floor, Plaza Shell, 29 Jalan Tunku Abdul Rahman",Kota Kinabalu,,Malaysia,MY,5.977266,116.074765,active,https://www.ey.com/en_gl/locations/malaysia#kota-kinabalu-kota-kinabalu,EY global office-locations JSON directory,source_coordinate,directory_complete,2026-07-18
ey-my-melaka-melaka,EY,EY,official_office,"Level 16-1,Jaya 99, Tower B, 99 Jalan Tun Sri Lanang",Melaka,,Malaysia,MY,2.2415958,102.2578675,active,https://www.ey.com/en_gl/locations/malaysia#melaka-melaka,EY global office-locations JSON directory,source_coordinate,directory_complete,2026-07-18
ey-my-kuala-lumpur-kuala-lumpur,EY,EY,official_office,"Level 23A, Menara Milenium, Jalan Damanlela, Pusat Bandar Damansara",Kuala Lumpur,,Malaysia,MY,3.146606,101.6624182,active,https://www.ey.com/en_gl/locations/malaysia#kuala-lumpur-kuala-lumpur,EY global office-locations JSON directory,source_coordinate,directory_complete,2026-07-18
ey-my-johor-johor,EY,EY,official_office,"B-15, Menara IIB, Persiaran Medini Sentral 1, Bandar Medini Iskandar, Johor Darul Ta'zim, Iskandar Puteri",Johor,,Malaysia,MY,1.4122458,103.6279947,active,https://www.ey.com/en_gl/locations/malaysia#johor-johor,EY global office-locations JSON directory,source_coordinate,directory_complete,2026-07-18
ey-my-penang-penang,EY,EY,official_office,"Block J, Level 13A, Wisma AIA, Jalan Seri Tanjung Pinang, Tanjung Tokong",Penang,,Malaysia,MY,5.4587543,100.3109274,active,https://www.ey.com/en_gl/locations/malaysia#penang-penang,EY global office-locations JSON directory,source_coordinate,directory_complete,2026-07-18
ey-my-kuching-kuching,EY,EY,official_office,"3rd Floor, Wisma Bukit Mata Kuching, Jalan Tunku Abdul Rahman",Kuching,,Malaysia,MY,1.5572192,110.3523949,active,https://www.ey.com/en_gl/locations/malaysia#kuching-kuching,EY global office-locations JSON directory,source_coordinate,directory_complete,2026-07-18
ey-qa-doha-doha,EY,EY,official_office,"Building No. 36, 5th and 6th Floor, Abdulla Bin Thani Street, Doha Design District 1, Msheireb Downtown Doha, State of Qatar",Doha,,Qatar,QA,25.285291692633376,51.52771540820482,active,https://www.ey.com/en_gl/locations/qatar#doha-doha,EY global office-locations JSON directory,source_coordinate,directory_complete,2026-07-18
ey-se-kalmar-kalmar,EY,EY Kalmar,official_office,Larmgatan 50 Box 854,Kalmar,,Sweden,SE,56.6648658930818,16.359627561058318,active,https://www.ey.com/en_gl/locations/sweden#kalmar-kalmar,EY global office-locations JSON directory,source_coordinate,directory_complete,2026-07-18
ey-se-norrkoping-norrkoeping,EY,EY,official_office,"Drottninggatan 24, Box 1050",Norrköping,,Sweden,SE,58.5908527,16.1868362,active,https://www.ey.com/en_gl/locations/sweden#norrkoeping-norrkoeping,EY global office-locations JSON directory,source_coordinate,directory_complete,2026-07-18
ey-se-uppsala-uppsala,EY,EY,official_office,"Stationsgatan 12, P.O. Box 1448",Uppsala,,Sweden,SE,59.8585284,17.6491412,active,https://www.ey.com/en_gl/locations/sweden#uppsala-uppsala,EY global office-locations JSON directory,source_coordinate,directory_complete,2026-07-18
ey-se-lund-lund,EY,EY,official_office,Mobilvägen 4,Lund,,Sweden,SE,55.7143434,13.2152341,active,https://www.ey.com/en_gl/locations/sweden#lund-lund,EY global office-locations JSON directory,source_coordinate,directory_complete,2026-07-18
ey-se-orebro-oerebro,EY,EY,official_office,"Vasastrand 11, Box 362",Örebro,,Sweden,SE,59.2737724,15.2086625,active,https://www.ey.com/en_gl/locations/sweden#oerebro-oerebro,EY global office-locations JSON directory,source_coordinate,directory_complete,2026-07-18
ey-se-halmstad-halmstad,EY,EY,official_office,"Gamletullsgatan 12, floor 3,",Halmstad,,Sweden,SE,56.674815811348374,12.866047953976164,active,https://www.ey.com/en_gl/locations/sweden#halmstad-halmstad,EY global office-locations JSON directory,source_coordinate,directory_complete,2026-07-18
ey-se-malmo-malmoe,EY,EY,official_office,"Nordenskiöldsgatan, 24 Box 4279",Malmö,,Sweden,SE,55.6121119,12.9945821,active,https://www.ey.com/en_gl/locations/sweden#malmoe-malmoe,EY global office-locations JSON directory,source_coordinate,directory_complete,2026-07-18
ey-se-nybro-nybro,EY,EY,official_office,"Bangatan 8, Box 155",Nybro,,Sweden,SE,56.7418331,15.9020613,active,https://www.ey.com/en_gl/locations/sweden#nybro-nybro,EY global office-locations JSON directory,source_coordinate,directory_complete,2026-07-18
ey-se-karlstad-karlstad,EY,EY,official_office,Kungsgatan 14 (plan 3),Karlstad,,Sweden,SE,59.3812863,13.5022392,active,https://www.ey.com/en_gl/locations/sweden#karlstad-karlstad,EY global office-locations JSON directory,source_coordinate,directory_complete,2026-07-18
ey-se-umea-umea,EY,EY,official_office,"Visiting address: Fredsgatan 19, 903 47 Umeå Postal address: Box 4017, 904 02 Umeå",Umeå,,Sweden,SE,63.8349328,20.2644861,active,https://www.ey.com/en_gl/locations/sweden#umea-umea,EY global office-locations JSON directory,source_coordinate,directory_complete,2026-07-18
ey-se-gothenburg-goeteborg,EY,EY Göteborg,official_office,Parkgatan 49,EY Göteborg,,Sweden,SE,57.7065525,11.9785503,active,https://www.ey.com/en_gl/locations/sweden#goeteborg-goeteborg,EY global office-locations JSON directory,source_coordinate,directory_complete,2026-07-18
ey-se-helsingborg-helsingborg,EY,EY,official_office,"Redaregatan 50, vån 4",Helsingborg,,Sweden,SE,56.041805958227194,12.691366747541702,active,https://www.ey.com/en_gl/locations/sweden#helsingborg-helsingborg,EY global office-locations JSON directory,source_coordinate,directory_complete,2026-07-18
ey-se-linkoping-linkoeping,EY,EY,official_office,"Storgatan 13, Box 450",Linköping,,Sweden,SE,58.4115246,15.6269622,active,https://www.ey.com/en_gl/locations/sweden#linkoeping-linkoeping,EY global office-locations JSON directory,source_coordinate,directory_complete,2026-07-18
ey-se-stockholm-ey-parthenon-stockholm,EY,EY-Parthenon Stockholm,official_office,"Hamngatan 26, 111 47",Stockholm,,Sweden,SE,59.3348321,18.0687913,active,https://www.ey.com/en_gl/locations/sweden#stockholm-ey-parthenon-stockholm,EY global office-locations JSON directory,source_coordinate,directory_complete,2026-07-18
ey-se-stockholm-stockholm,EY,EY,official_office,"Hamngatan 26,",Stockholm,,Sweden,SE,59.332909943215704,18.06721179819683,active,https://www.ey.com/en_gl/locations/sweden#stockholm-stockholm,EY global office-locations JSON directory,source_coordinate,directory_complete,2026-07-18
ey-se-jonkoping-joenkoeping,EY,EY,official_office,Framgången 1,Jönköping,,Sweden,SE,57.78278022373764,14.159510386366899,active,https://www.ey.com/en_gl/locations/sweden#joenkoeping-joenkoeping,EY global office-locations JSON directory,source_coordinate,directory_complete,2026-07-18
ey-se-angelholm-aengelholm,EY,EY,official_office,Nytorgsgatan 14,Ängelholm,,Sweden,SE,56.2465847,12.8701735,active,https://www.ey.com/en_gl/locations/sweden#aengelholm-aengelholm,EY global office-locations JSON directory,source_coordinate,directory_complete,2026-07-18
ey-se-oskarshamn-oskarshamn,EY,EY,official_office,Östra Torggatan 1,Oskarshamn,,Sweden,SE,57.2658426,16.4481359,active,https://www.ey.com/en_gl/locations/sweden#oskarshamn-oskarshamn,EY global office-locations JSON directory,source_coordinate,directory_complete,2026-07-18
ey-pg-port-moresby-level-4,EY,EY,official_office,"Level 4, Cuthbertson Street",Port Moresby,,Papua New Guinea,PG,-9.4780123,147.1506542,active,https://www.ey.com/en_gl/locations/papua-new-guinea#port-moresby-level-4,EY global office-locations JSON directory,source_coordinate,directory_complete,2026-07-18
ey-be-diegem-diegem,EY,EY,official_office,"Kouterveldstraat 7B 001,",Diegem,,Belgium,BE,50.885776,4.453754,active,https://www.ey.com/en_gl/locations/belgium#diegem-diegem,EY global office-locations JSON directory,source_coordinate,directory_complete,2026-07-18
ey-be-antwerp-antwerp,EY,EY,official_office,"Borsbeeksebrug 26 B2600 Antwerp ,",Antwerp,,Belgium,BE,51.200734,4.436188,active,https://www.ey.com/en_gl/locations/belgium#antwerp-antwerp,EY global office-locations JSON directory,source_coordinate,directory_complete,2026-07-18
ey-be-tournai-tournai,EY,EY,official_office,Rue Terre à Briques 29 bloc D,Tournai,,Belgium,BE,50.6148777,3.3332565,active,https://www.ey.com/en_gl/locations/belgium#tournai-tournai,EY global office-locations JSON directory,source_coordinate,directory_complete,2026-07-18
ey-be-brussels-brussels,EY,EY,official_office,"Belliardstraat 15,",Brussels,,Belgium,BE,50.842179,4.371864,active,https://www.ey.com/en_gl/locations/belgium#brussels-brussels,EY global office-locations JSON directory,source_coordinate,directory_complete,2026-07-18
ey-be-ghent-ghent,EY,EY,official_office,"Pauline Van Pottelsberghelaan 12 B9051 Ghent ,",Ghent,,Belgium,BE,51.02772,3.687104,active,https://www.ey.com/en_gl/locations/belgium#ghent-ghent,EY global office-locations JSON directory,source_coordinate,directory_complete,2026-07-18
ey-be-hasselt-hasselt,EY,EY,official_office,"Corda Campus - Building 3, Kempische Steenweg 307 bus 5.1,",Hasselt,,Belgium,BE,50.951516,5.350509,active,https://www.ey.com/en_gl/locations/belgium#hasselt-hasselt,EY global office-locations JSON directory,source_coordinate,directory_complete,2026-07-18
ey-be-liege-liege,EY,EY,official_office,"Liège Office Center, Rue des Guillemins 129, bte3",Liège,,Belgium,BE,50.626436,5.56639,active,https://www.ey.com/en_gl/locations/belgium#liege-liege,EY global office-locations JSON directory,source_coordinate,directory_complete,2026-07-18
ey-be-nivelles-nivelles,EY,"EY, The Gate - Nivelles Nord",official_office,Av. Jean Monnet 1,Nivelles,,Belgium,BE,50.679937546627414,4.62412058294474,active,https://www.ey.com/en_gl/locations/belgium#nivelles-nivelles,EY global office-locations JSON directory,source_coordinate,directory_complete,2026-07-18
ey-gu-tamuning-tamuning,EY,EY,official_office,"EY Building ,Suite 201, 231 Ypao Road",Tamuning,,Guam,GU,13.4943698,144.7895321,active,https://www.ey.com/en_gl/locations/guam#tamuning-tamuning,EY global office-locations JSON directory,source_coordinate,directory_complete,2026-07-18
ey-ua-lviv-lviv,EY,EY,official_office,"Kulparkivska Street, 200A,",Lviv,,Ukraine,UA,49.811431,23.9830537,active,https://www.ey.com/en_gl/locations/ukraine#lviv-lviv,EY global office-locations JSON directory,source_coordinate,directory_complete,2026-07-18
ey-ua-kyiv-kyiv,EY,EY,official_office,"Khreschatyk Street, 19A,",Kyiv,,Ukraine,UA,50.4471859,30.523071,active,https://www.ey.com/en_gl/locations/ukraine#kyiv-kyiv,EY global office-locations JSON directory,source_coordinate,directory_complete,2026-07-18
ey-lv-riga-riga,EY,EY,official_office,Muitas Street 1A,Riga,,Latvia,LV,56.9536062,24.101852,active,https://www.ey.com/en_gl/locations/latvia#riga-riga,EY global office-locations JSON directory,source_coordinate,directory_complete,2026-07-18
ey-ve-valencia-valencia,EY,EY,official_office,"Av. Cuatricentenaria, Edificio Torre Ejecutiva, Piso 2, Oficina 2-1. Urbanización Valles de Camoruco, Estado Carabobo.",Valencia,,Venezuela,VE,10.2036232,-68.028534,active,https://www.ey.com/en_gl/locations/venezuela#valencia-valencia,EY global office-locations JSON directory,source_coordinate,directory_complete,2026-07-18
ey-ve-puerto-la-cruz-puerto-la-cruz,EY,EY,official_office,"Avenida Los Almendrones. Urbanización Morro I. Lechería,, Centro Empresarial Mar Pacífico. Local 18. Nivel Parque,, Estado Anzoátegui",Puerto La Cruz,,Venezuela,VE,10.182165,-64.689414,active,https://www.ey.com/en_gl/locations/venezuela#puerto-la-cruz-puerto-la-cruz,EY global office-locations JSON directory,source_coordinate,directory_complete,2026-07-18
ey-ve-caracas-caracas,EY,EY,official_office,"Edificio Caracas Campus, Calle Altagracia, Urbanización Sorokaima. La Trinidad, Distrito Capital,",Caracas,,Venezuela,VE,10.491018,-66.8624962,active,https://www.ey.com/en_gl/locations/venezuela#caracas-caracas,EY global office-locations JSON directory,source_coordinate,directory_complete,2026-07-18
ey-bm-hamilton-hamilton,EY,EY Bermuda Ltd.,official_office,3 Bermudiana Road,Hamilton,,Bermuda,BM,32.2926642,-64.7880326,active,https://www.ey.com/en_gl/locations/bermuda#hamilton-hamilton,EY global office-locations JSON directory,source_coordinate,directory_complete,2026-07-18
ey-bm-hamilton-bermuda-wavespace,EY,EY wavespace Bermuda,official_office,3 Bermudiana Road,Hamilton,,Bermuda,BM,32.292700496449136,-64.78810660742107,active,https://www.ey.com/en_gl/locations/bermuda#hamilton-bermuda-wavespace,EY global office-locations JSON directory,source_coordinate,directory_complete,2026-07-18
ey-hn-tegucigalpa-tegucigalpa,EY,EY,official_office,"Centro Corporativo Los Próceres, Torre 1, Piso 1, Oficina 1. Avenida La Paz, Tegucigalpa, Honduras",Tegucigalpa,,Honduras,HN,14.102916,-87.178164,active,https://www.ey.com/en_gl/locations/honduras#tegucigalpa-tegucigalpa,EY global office-locations JSON directory,source_coordinate,directory_complete,2026-07-18
ey-hn-san-pedro-sula-san-pedro-sula,EY,EY,official_office,"Altia Business Park, Torre 1, Km. 2, N.O., Boulevard Armenta, Piso 4, local 4E",San Pedro Sula,,Honduras,HN,15.5616862,-88.0213275,active,https://www.ey.com/en_gl/locations/honduras#san-pedro-sula-san-pedro-sula,EY global office-locations JSON directory,source_coordinate,directory_complete,2026-07-18
